[
    {
        "Stop_ID": "530",
        "CTA Stop Name": "Chicago & Pulaski",
        "Routes": "66",
        "start_lng": "-87.726211",
        "start_lat": "41.89529",
        "Month_Beginning": "2001-11-01 00:00:00",
        "MonthTotal": "32874.94117647059",
        "heat": "0.03104692904143966"
    },
    {
        "Stop_ID": "548",
        "CTA Stop Name": "Chicago & Western",
        "Routes": "66",
        "start_lng": "-87.687019",
        "start_lat": "41.895662",
        "Month_Beginning": "2001-11-01 00:00:00",
        "MonthTotal": "32874.94117647059",
        "heat": "0.03104692904143966"
    },
    {
        "Stop_ID": "556",
        "CTA Stop Name": "Chicago & Ashland",
        "Routes": "66",
        "start_lng": "-87.667474",
        "start_lat": "41.895993",
        "Month_Beginning": "2001-11-01 00:00:00",
        "MonthTotal": "32874.94117647059",
        "heat": "0.03104692904143966"
    },
    {
        "Stop_ID": "599",
        "CTA Stop Name": "Chicago & Michigan",
        "Routes": "66",
        "start_lng": "-87.624493",
        "start_lat": "41.8968",
        "Month_Beginning": "2001-11-01 00:00:00",
        "MonthTotal": "32874.94117647059",
        "heat": "0.03104692904143966"
    },
    {
        "Stop_ID": "606",
        "CTA Stop Name": "Chicago & Franklin (Brown line)",
        "Routes": "66",
        "start_lng": "-87.635534",
        "start_lat": "41.896669",
        "Month_Beginning": "2001-11-01 00:00:00",
        "MonthTotal": "32874.94117647059",
        "heat": "0.03104692904143966"
    },
    {
        "Stop_ID": "617",
        "CTA Stop Name": "Chicago Blue Line Station",
        "Routes": "66",
        "start_lng": "-87.655108",
        "start_lat": "41.896353",
        "Month_Beginning": "2001-11-01 00:00:00",
        "MonthTotal": "32874.94117647059",
        "heat": "0.03104692904143966"
    },
    {
        "Stop_ID": "648",
        "CTA Stop Name": "Chicago & Pulaski",
        "Routes": "66",
        "start_lng": "-87.725901",
        "start_lat": "41.895445",
        "Month_Beginning": "2001-11-01 00:00:00",
        "MonthTotal": "32874.94117647059",
        "heat": "0.03104692904143966"
    },
    {
        "Stop_ID": "672",
        "CTA Stop Name": "Grand & Oak Park",
        "Routes": "65,74",
        "start_lng": "-87.795414",
        "start_lat": "41.923518",
        "Month_Beginning": "2001-11-01 00:00:00",
        "MonthTotal": "141272.38095238095",
        "heat": "0.13341692577941477"
    },
    {
        "Stop_ID": "738",
        "CTA Stop Name": "Grand & Halsted/Milwaukee (Blue Line)",
        "Routes": "65",
        "start_lng": "-87.647777",
        "start_lat": "41.891115",
        "Month_Beginning": "2001-11-01 00:00:00",
        "MonthTotal": "25287.714285714286",
        "heat": "0.023881590139868944"
    },
    {
        "Stop_ID": "1023",
        "CTA Stop Name": "Sheridan & Pratt",
        "Routes": "147,151,155",
        "start_lng": "-87.660998",
        "start_lat": "42.005364",
        "Month_Beginning": "2001-11-01 00:00:00",
        "MonthTotal": "51151.36477987422",
        "heat": "0.048307091537252336"
    },
    {
        "Stop_ID": "1027",
        "CTA Stop Name": "Sheridan & Loyola (Red Line)",
        "Routes": "147,151,155",
        "start_lng": "-87.66086",
        "start_lat": "42.001423",
        "Month_Beginning": "2001-11-01 00:00:00",
        "MonthTotal": "51151.36477987422",
        "heat": "0.048307091537252336"
    },
    {
        "Stop_ID": "1036",
        "CTA Stop Name": "Sheridan & Ardmore",
        "Routes": "136,147,151",
        "start_lng": "-87.655379",
        "start_lat": "41.987459",
        "Month_Beginning": "2001-11-01 00:00:00",
        "MonthTotal": "21220.764779874215",
        "heat": "0.020040783488835093"
    },
    {
        "Stop_ID": "1038",
        "CTA Stop Name": "Sheridan & Bryn Mawr",
        "Routes": "136,147,151",
        "start_lng": "-87.655246",
        "start_lat": "41.983481",
        "Month_Beginning": "2001-11-01 00:00:00",
        "MonthTotal": "21220.764779874215",
        "heat": "0.020040783488835093"
    },
    {
        "Stop_ID": "1061",
        "CTA Stop Name": "Lake Shore & Grace",
        "Routes": "135,146,151,152",
        "start_lng": "-87.645114",
        "start_lat": "41.952058",
        "Month_Beginning": "2001-11-01 00:00:00",
        "MonthTotal": "75302.1069710164",
        "heat": "0.07111493095152176"
    },
    {
        "Stop_ID": "1063",
        "CTA Stop Name": "Lake Shore & Addison",
        "Routes": "135,146,151",
        "start_lng": "-87.643435",
        "start_lat": "41.948591",
        "Month_Beginning": "2001-11-01 00:00:00",
        "MonthTotal": "24217.506971016403",
        "heat": "0.022870891736465074"
    },
    {
        "Stop_ID": "1065",
        "CTA Stop Name": "Lake Shore & Cornelia",
        "Routes": "135,146,151",
        "start_lng": "-87.642378",
        "start_lat": "41.946619",
        "Month_Beginning": "2001-11-01 00:00:00",
        "MonthTotal": "24217.506971016403",
        "heat": "0.022870891736465074"
    },
    {
        "Stop_ID": "1077",
        "CTA Stop Name": "Sheridan & Diversey",
        "Routes": "134,143,151,156",
        "start_lng": "-87.639398",
        "start_lat": "41.933015",
        "Month_Beginning": "2001-11-01 00:00:00",
        "MonthTotal": "22328.635613207545",
        "heat": "0.021087051129739607"
    },
    {
        "Stop_ID": "1078",
        "CTA Stop Name": "Stockton & Wrightwood",
        "Routes": "134,143,151,156",
        "start_lng": "-87.639031",
        "start_lat": "41.931304",
        "Month_Beginning": "2001-11-01 00:00:00",
        "MonthTotal": "22328.635613207545",
        "heat": "0.021087051129739607"
    },
    {
        "Stop_ID": "1082",
        "CTA Stop Name": "Stockton & Webster",
        "Routes": "151,156",
        "start_lng": "-87.635806",
        "start_lat": "41.922116",
        "Month_Beginning": "2001-11-01 00:00:00",
        "MonthTotal": "22328.635613207545",
        "heat": "0.021087051129739607"
    },
    {
        "Stop_ID": "1102",
        "CTA Stop Name": "Michigan & Illinois",
        "Routes": "2,3,10,26,143,146,147,148,151,157",
        "start_lng": "-87.624293",
        "start_lat": "41.891032",
        "Month_Beginning": "2001-11-01 00:00:00",
        "MonthTotal": "48459.95722958137",
        "heat": "0.04576533978819239"
    },
    {
        "Stop_ID": "1105",
        "CTA Stop Name": "Michigan & Lake/Randolph",
        "Routes": "3,4,19,26,N66,124,143,147,151,157",
        "start_lng": "-87.624615",
        "start_lat": "41.885104",
        "Month_Beginning": "2001-11-01 00:00:00",
        "MonthTotal": "65010.386650160784",
        "heat": "0.06139548206184161"
    },
    {
        "Stop_ID": "1106",
        "CTA Stop Name": "Michigan & Washington",
        "Routes": "3,4,19,20,26,60,N66,124,143,147,151,157",
        "start_lng": "-87.624588",
        "start_lat": "41.883414",
        "Month_Beginning": "2001-11-01 00:00:00",
        "MonthTotal": "149063.5866501608",
        "heat": "0.14077490124004802"
    },
    {
        "Stop_ID": "1110",
        "CTA Stop Name": "Michigan & Jackson",
        "Routes": "3,4,J14,26,143,147",
        "start_lng": "-87.624446",
        "start_lat": "41.878429",
        "Month_Beginning": "2001-11-01 00:00:00",
        "MonthTotal": "55874.771870286575",
        "heat": "0.05276785342828272"
    },
    {
        "Stop_ID": "1119",
        "CTA Stop Name": "Michigan & Randolph",
        "Routes": "3,6,19,20,26,N66,124,143,147,151,157",
        "start_lng": "-87.624318",
        "start_lat": "41.884688",
        "Month_Beginning": "2001-11-01 00:00:00",
        "MonthTotal": "102856.27779235193",
        "heat": "0.09713695124027574"
    },
    {
        "Stop_ID": "1120",
        "CTA Stop Name": "Michigan & South Water",
        "Routes": "3,6,20,26,N66,124,143,146,147,148,151,157",
        "start_lng": "-87.624384",
        "start_lat": "41.8867",
        "Month_Beginning": "2001-11-01 00:00:00",
        "MonthTotal": "109536.53536810951",
        "heat": "0.10344575288404956"
    },
    {
        "Stop_ID": "1122",
        "CTA Stop Name": "Michigan & Hubbard (Tribune Bldg.)",
        "Routes": "2,3,10,26,N66,143,146,147,148,151,157",
        "start_lng": "-87.623969",
        "start_lat": "41.890205",
        "Month_Beginning": "2001-11-01 00:00:00",
        "MonthTotal": "48459.95722958137",
        "heat": "0.04576533978819239"
    },
    {
        "Stop_ID": "1124",
        "CTA Stop Name": "Michigan & Ontario",
        "Routes": "3,10,26,125,143,146,147,148,151",
        "start_lng": "-87.624089",
        "start_lat": "41.893194",
        "Month_Beginning": "2001-11-01 00:00:00",
        "MonthTotal": "54992.809610533746",
        "heat": "0.051934932707640574"
    },
    {
        "Stop_ID": "1125",
        "CTA Stop Name": "Michigan & Huron",
        "Routes": "3,10,26,125,143,146,147,148,151",
        "start_lng": "-87.624104",
        "start_lat": "41.894798",
        "Month_Beginning": "2001-11-01 00:00:00",
        "MonthTotal": "54992.809610533746",
        "heat": "0.051934932707640574"
    },
    {
        "Stop_ID": "1127",
        "CTA Stop Name": "Michigan & Chestnut",
        "Routes": "143,146,147,148,151",
        "start_lng": "-87.62396",
        "start_lat": "41.898069",
        "Month_Beginning": "2001-11-01 00:00:00",
        "MonthTotal": "25828.789022298457",
        "heat": "0.024392578398757987"
    },
    {
        "Stop_ID": "1257",
        "CTA Stop Name": "Fullerton & Pulaski",
        "Routes": "74",
        "start_lng": "-87.72659",
        "start_lat": "41.924597",
        "Month_Beginning": "2001-11-01 00:00:00",
        "MonthTotal": "115984.66666666667",
        "heat": "0.10953533563954584"
    },
    {
        "Stop_ID": "1517",
        "CTA Stop Name": "S Hyde Park & 56th Street",
        "Routes": "6,28,55",
        "start_lng": "-87.583802",
        "start_lat": "41.793316",
        "Month_Beginning": "2001-11-01 00:00:00",
        "MonthTotal": "77467.37272727273",
        "heat": "0.07315979703750167"
    },
    {
        "Stop_ID": "1591",
        "CTA Stop Name": "Michigan & Roosevelt",
        "Routes": "1,3,4",
        "start_lng": "-87.624259",
        "start_lat": "41.86712",
        "Month_Beginning": "2001-11-01 00:00:00",
        "MonthTotal": "53486.58597285068",
        "heat": "0.05051246268256399"
    },
    {
        "Stop_ID": "1725",
        "CTA Stop Name": "Devon & California",
        "Routes": "155",
        "start_lng": "-87.6998",
        "start_lat": "41.997502",
        "Month_Beginning": "2001-11-01 00:00:00",
        "MonthTotal": "32583.0",
        "heat": "0.030771221263241597"
    },
    {
        "Stop_ID": "1757",
        "CTA Stop Name": "Devon & Sheridan",
        "Routes": "36,151,155",
        "start_lng": "-87.661075",
        "start_lat": "41.998251",
        "Month_Beginning": "2001-11-01 00:00:00",
        "MonthTotal": "70079.44811320755",
        "heat": "0.0661826782032768"
    },
    {
        "Stop_ID": "2121",
        "CTA Stop Name": "King Drive & 79th Street",
        "Routes": "3",
        "start_lng": "-87.614872",
        "start_lat": "41.751307",
        "Month_Beginning": "2001-11-01 00:00:00",
        "MonthTotal": "17476.970588235294",
        "heat": "0.01650516309062253"
    },
    {
        "Stop_ID": "2192",
        "CTA Stop Name": "McCormick Place",
        "Routes": "3,21",
        "start_lng": "-87.619053",
        "start_lat": "41.851079",
        "Month_Beginning": "2001-11-01 00:00:00",
        "MonthTotal": "126737.4705882353",
        "heat": "0.1196902295618624"
    },
    {
        "Stop_ID": "2218",
        "CTA Stop Name": "King Drive & 51st Street",
        "Routes": "3",
        "start_lng": "-87.616234",
        "start_lat": "41.801868",
        "Month_Beginning": "2001-11-01 00:00:00",
        "MonthTotal": "17476.970588235294",
        "heat": "0.01650516309062253"
    },
    {
        "Stop_ID": "2470",
        "CTA Stop Name": "Cottage Grove & 87th Street",
        "Routes": "4",
        "start_lng": "-87.604694",
        "start_lat": "41.736538",
        "Month_Beginning": "2001-11-01 00:00:00",
        "MonthTotal": "24437.384615384617",
        "heat": "0.023078543077523134"
    },
    {
        "Stop_ID": "2549",
        "CTA Stop Name": "Cottage Grove & 47th Street",
        "Routes": "4",
        "start_lng": "-87.606677",
        "start_lat": "41.809649",
        "Month_Beginning": "2001-11-01 00:00:00",
        "MonthTotal": "24437.384615384617",
        "heat": "0.023078543077523134"
    },
    {
        "Stop_ID": "2566",
        "CTA Stop Name": "Cottage Grove & 63rd Street (Green Line)",
        "Routes": "4",
        "start_lng": "-87.60604",
        "start_lat": "41.780525",
        "Month_Beginning": "2001-11-01 00:00:00",
        "MonthTotal": "24437.384615384617",
        "heat": "0.023078543077523134"
    },
    {
        "Stop_ID": "2608",
        "CTA Stop Name": "79th Street & Colfax",
        "Routes": "79",
        "start_lng": "-87.561286",
        "start_lat": "41.751852",
        "Month_Beginning": "2001-11-01 00:00:00",
        "MonthTotal": "88714.9",
        "heat": "0.08378190520352183"
    },
    {
        "Stop_ID": "2722",
        "CTA Stop Name": "79th Street & Kilpatrick",
        "Routes": "79",
        "start_lng": "-87.739215",
        "start_lat": "41.749086",
        "Month_Beginning": "2001-11-01 00:00:00",
        "MonthTotal": "88714.9",
        "heat": "0.08378190520352183"
    },
    {
        "Stop_ID": "2737",
        "CTA Stop Name": "79th Street & Kedzie",
        "Routes": "79",
        "start_lng": "-87.702566",
        "start_lat": "41.749709",
        "Month_Beginning": "2001-11-01 00:00:00",
        "MonthTotal": "88714.9",
        "heat": "0.08378190520352183"
    },
    {
        "Stop_ID": "2820",
        "CTA Stop Name": "95th Street & Cottage Grove",
        "Routes": "100,115",
        "start_lng": "-87.604547",
        "start_lat": "41.721944",
        "Month_Beginning": "2001-11-01 00:00:00",
        "MonthTotal": "5710.8",
        "heat": "0.0053932507869171075"
    },
    {
        "Stop_ID": "3024",
        "CTA Stop Name": "Kedzie & Chicago",
        "Routes": "52",
        "start_lng": "-87.706631",
        "start_lat": "41.895366",
        "Month_Beginning": "2001-11-01 00:00:00",
        "MonthTotal": "78277.75",
        "heat": "0.07392511325656662"
    },
    {
        "Stop_ID": "3222",
        "CTA Stop Name": "63rd Street & King Drive (Green Line)",
        "Routes": "63",
        "start_lng": "-87.615528",
        "start_lat": "41.780301",
        "Month_Beginning": "2001-11-01 00:00:00",
        "MonthTotal": "72706.25",
        "heat": "0.06866341668878125"
    },
    {
        "Stop_ID": "3645",
        "CTA Stop Name": "Halsted & 111th Street",
        "Routes": "8A,108",
        "start_lng": "-87.642253",
        "start_lat": "41.692233",
        "Month_Beginning": "2001-11-01 00:00:00",
        "MonthTotal": "51567.33333333333",
        "heat": "0.04869993014625215"
    },
    {
        "Stop_ID": "4606",
        "CTA Stop Name": "Cicero & Archer",
        "Routes": "54B,62",
        "start_lng": "-87.74273",
        "start_lat": "41.798471",
        "Month_Beginning": "2001-11-01 00:00:00",
        "MonthTotal": "88826.83333333333",
        "heat": "0.0838876144803451"
    },
    {
        "Stop_ID": "4612",
        "CTA Stop Name": "Cicero & 63rd Street",
        "Routes": "54B,63W,165",
        "start_lng": "-87.742459",
        "start_lat": "41.778589",
        "Month_Beginning": "2001-11-01 00:00:00",
        "MonthTotal": "124177.0",
        "heat": "0.11727213402097879"
    },
    {
        "Stop_ID": "4644",
        "CTA Stop Name": "Halsted & Archer",
        "Routes": "8,N62",
        "start_lng": "-87.646584",
        "start_lat": "41.847314",
        "Month_Beginning": "2001-11-01 00:00:00",
        "MonthTotal": "257962.0",
        "heat": "0.24361801490066382"
    },
    {
        "Stop_ID": "4694",
        "CTA Stop Name": "Pulaski & 111th Street",
        "Routes": "53A",
        "start_lng": "-87.720193",
        "start_lat": "41.691114",
        "Month_Beginning": "2001-11-01 00:00:00",
        "MonthTotal": "60092.75",
        "heat": "0.05675129075182339"
    },
    {
        "Stop_ID": "4704",
        "CTA Stop Name": "Pulaski & 79th Street",
        "Routes": "53A",
        "start_lng": "-87.721774",
        "start_lat": "41.749338",
        "Month_Beginning": "2001-11-01 00:00:00",
        "MonthTotal": "60092.75",
        "heat": "0.05675129075182339"
    },
    {
        "Stop_ID": "4731",
        "CTA Stop Name": "Pulaski & 75th Place",
        "Routes": "53A,67",
        "start_lng": "-87.722391",
        "start_lat": "41.756938",
        "Month_Beginning": "2001-11-01 00:00:00",
        "MonthTotal": "105752.75",
        "heat": "0.09987236501998811"
    },
    {
        "Stop_ID": "4764",
        "CTA Stop Name": "Foster & Pulaski",
        "Routes": "92",
        "start_lng": "-87.728456",
        "start_lat": "41.975459",
        "Month_Beginning": "2001-11-01 00:00:00",
        "MonthTotal": "95480.5",
        "heat": "0.09017130380336186"
    },
    {
        "Stop_ID": "4867",
        "CTA Stop Name": "Lake Shore Drive & Belmont",
        "Routes": "135,146",
        "start_lng": "-87.638928",
        "start_lat": "41.940364",
        "Month_Beginning": "2001-11-01 00:00:00",
        "MonthTotal": "12367.808857808857",
        "heat": "0.011680096458432793"
    },
    {
        "Stop_ID": "4975",
        "CTA Stop Name": "LaSalle & Randolph",
        "Routes": "134,135,136,156",
        "start_lng": "-87.632319",
        "start_lat": "41.884308",
        "Month_Beginning": "2001-11-01 00:00:00",
        "MonthTotal": "18238.722115384615",
        "heat": "0.017224557400217225"
    },
    {
        "Stop_ID": "5024",
        "CTA Stop Name": "Clinton & Madison",
        "Routes": "128,132,192",
        "start_lng": "-87.641267",
        "start_lat": "41.881976",
        "Month_Beginning": "2001-11-01 00:00:00",
        "MonthTotal": "4419.0",
        "heat": "0.004173281366426192"
    },
    {
        "Stop_ID": "5037",
        "CTA Stop Name": "Lake Park & E. Hyde Park Blvd",
        "Routes": "2,6,28",
        "start_lng": "-87.587888",
        "start_lat": "41.802873",
        "Month_Beginning": "2001-11-01 00:00:00",
        "MonthTotal": "46456.05670995671",
        "heat": "0.04387286621980105"
    },
    {
        "Stop_ID": "5315",
        "CTA Stop Name": "67th Street & Cornell Drive",
        "Routes": "N5,6,15,67",
        "start_lng": "-87.585637",
        "start_lat": "41.773392",
        "Month_Beginning": "2001-11-01 00:00:00",
        "MonthTotal": "68067.40909090909",
        "heat": "0.06428251867390805"
    },
    {
        "Stop_ID": "5338",
        "CTA Stop Name": "Broadway & Bryn Mawr/Ridge",
        "Routes": "36",
        "start_lng": "-87.660186",
        "start_lat": "41.98387",
        "Month_Beginning": "2001-11-01 00:00:00",
        "MonthTotal": "25646.75",
        "heat": "0.02422066166200293"
    },
    {
        "Stop_ID": "5702",
        "CTA Stop Name": "Irving Park & Kimball",
        "Routes": "80",
        "start_lng": "-87.712792",
        "start_lat": "41.953968",
        "Month_Beginning": "2001-11-01 00:00:00",
        "MonthTotal": "31696.0",
        "heat": "0.029933542926056707"
    },
    {
        "Stop_ID": "5995",
        "CTA Stop Name": "Ashland & Irving Park",
        "Routes": "9,X9",
        "start_lng": "-87.669172",
        "start_lat": "41.954091",
        "Month_Beginning": "2001-11-01 00:00:00",
        "MonthTotal": "61959.61538461538",
        "heat": "0.058514349028184885"
    },
    {
        "Stop_ID": "6016",
        "CTA Stop Name": "Ashland & Cortland",
        "Routes": "9,X9",
        "start_lng": "-87.667932",
        "start_lat": "41.916304",
        "Month_Beginning": "2001-11-01 00:00:00",
        "MonthTotal": "61959.61538461538",
        "heat": "0.058514349028184885"
    },
    {
        "Stop_ID": "6024",
        "CTA Stop Name": "Ashland & Division (Blue Line)",
        "Routes": "9,X9",
        "start_lng": "-87.667658",
        "start_lat": "41.90351",
        "Month_Beginning": "2001-11-01 00:00:00",
        "MonthTotal": "61959.61538461538",
        "heat": "0.058514349028184885"
    },
    {
        "Stop_ID": "6032",
        "CTA Stop Name": "Ashland & Grand",
        "Routes": "9,X9",
        "start_lng": "-87.667272",
        "start_lat": "41.891106",
        "Month_Beginning": "2001-11-01 00:00:00",
        "MonthTotal": "61959.61538461538",
        "heat": "0.058514349028184885"
    },
    {
        "Stop_ID": "6114",
        "CTA Stop Name": "Ashland & 79th Street",
        "Routes": "9,X9",
        "start_lng": "-87.663581",
        "start_lat": "41.750445",
        "Month_Beginning": "2001-11-01 00:00:00",
        "MonthTotal": "61959.61538461538",
        "heat": "0.058514349028184885"
    },
    {
        "Stop_ID": "6155",
        "CTA Stop Name": "Ashland & 87th Street",
        "Routes": "9,X9",
        "start_lng": "-87.662915",
        "start_lat": "41.735638",
        "Month_Beginning": "2001-11-01 00:00:00",
        "MonthTotal": "61959.61538461538",
        "heat": "0.058514349028184885"
    },
    {
        "Stop_ID": "6168",
        "CTA Stop Name": "Ashland & 74th Street",
        "Routes": "9,X9",
        "start_lng": "-87.663512",
        "start_lat": "41.759364",
        "Month_Beginning": "2001-11-01 00:00:00",
        "MonthTotal": "61959.61538461538",
        "heat": "0.058514349028184885"
    },
    {
        "Stop_ID": "6209",
        "CTA Stop Name": "Ashland & 35th Street",
        "Routes": "9,X9",
        "start_lng": "-87.665421",
        "start_lat": "41.830386",
        "Month_Beginning": "2001-11-01 00:00:00",
        "MonthTotal": "61959.61538461538",
        "heat": "0.058514349028184885"
    },
    {
        "Stop_ID": "6305",
        "CTA Stop Name": "26th Street & Kildare",
        "Routes": "60",
        "start_lng": "-87.731945",
        "start_lat": "41.844076",
        "Month_Beginning": "2001-11-01 00:00:00",
        "MonthTotal": "44177.333333333336",
        "heat": "0.04172085132799247"
    },
    {
        "Stop_ID": "6308",
        "CTA Stop Name": "26th Street & Pulaski",
        "Routes": "60",
        "start_lng": "-87.724703",
        "start_lat": "41.844189",
        "Month_Beginning": "2001-11-01 00:00:00",
        "MonthTotal": "44177.333333333336",
        "heat": "0.04172085132799247"
    },
    {
        "Stop_ID": "6681",
        "CTA Stop Name": "Western & Roosevelt",
        "Routes": "49,X49,157",
        "start_lng": "-87.685903",
        "start_lat": "41.866476",
        "Month_Beginning": "2001-11-01 00:00:00",
        "MonthTotal": "38652.56625258799",
        "heat": "0.03650328909402112"
    },
    {
        "Stop_ID": "8155",
        "CTA Stop Name": "47th Street & Western Avenue",
        "Routes": "47,94",
        "start_lng": "-87.684563",
        "start_lat": "41.808374",
        "Month_Beginning": "2001-11-01 00:00:00",
        "MonthTotal": "113470.52380952382",
        "heat": "0.10716099177481452"
    },
    {
        "Stop_ID": "8283",
        "CTA Stop Name": "Western & 55th Street/Garfield",
        "Routes": "49,X49",
        "start_lng": "-87.684176",
        "start_lat": "41.793997",
        "Month_Beginning": "2001-11-01 00:00:00",
        "MonthTotal": "34705.06625258799",
        "heat": "0.03277528995530933"
    },
    {
        "Stop_ID": "8360",
        "CTA Stop Name": "Western & Cermak",
        "Routes": "49,X49",
        "start_lng": "-87.685514",
        "start_lat": "41.851915",
        "Month_Beginning": "2001-11-01 00:00:00",
        "MonthTotal": "34705.06625258799",
        "heat": "0.03277528995530933"
    },
    {
        "Stop_ID": "8388",
        "CTA Stop Name": "Western & Chicago",
        "Routes": "49,X49",
        "start_lng": "-87.686706",
        "start_lat": "41.895635",
        "Month_Beginning": "2001-11-01 00:00:00",
        "MonthTotal": "34705.06625258799",
        "heat": "0.03277528995530933"
    },
    {
        "Stop_ID": "8539",
        "CTA Stop Name": "Harlem & Foster",
        "Routes": "90",
        "start_lng": "-87.807153",
        "start_lat": "41.974631",
        "Month_Beginning": "2001-11-01 00:00:00",
        "MonthTotal": "50965.5",
        "heat": "0.04813156177429149"
    },
    {
        "Stop_ID": "9017",
        "CTA Stop Name": "Pulaski & North Ave",
        "Routes": "53",
        "start_lng": "-87.72653",
        "start_lat": "41.909618",
        "Month_Beginning": "2001-11-01 00:00:00",
        "MonthTotal": "142170.0",
        "heat": "0.13426463269174288"
    },
    {
        "Stop_ID": "9453",
        "CTA Stop Name": "91st Street & Commercial",
        "Routes": "26,87",
        "start_lng": "-87.551111",
        "start_lat": "41.730147",
        "Month_Beginning": "2001-11-01 00:00:00",
        "MonthTotal": "61094.57142857143",
        "heat": "0.05769740586844335"
    },
    {
        "Stop_ID": "9511",
        "CTA Stop Name": "87th Street & Western",
        "Routes": "87",
        "start_lng": "-87.682215",
        "start_lat": "41.735648",
        "Month_Beginning": "2001-11-01 00:00:00",
        "MonthTotal": "61094.57142857143",
        "heat": "0.05769740586844335"
    },
    {
        "Stop_ID": "9798",
        "CTA Stop Name": "Gale & Milwaukee",
        "Routes": "85,88",
        "start_lng": "-87.763491",
        "start_lat": "41.970525",
        "Month_Beginning": "2001-11-01 00:00:00",
        "MonthTotal": "129892.0",
        "heat": "0.12266935126676419"
    },
    {
        "Stop_ID": "10228",
        "CTA Stop Name": "Cicero & North Ave",
        "Routes": "54",
        "start_lng": "-87.746256",
        "start_lat": "41.909316",
        "Month_Beginning": "2001-11-01 00:00:00",
        "MonthTotal": "70239.4",
        "heat": "0.06633373596038829"
    },
    {
        "Stop_ID": "10292",
        "CTA Stop Name": "Cicero & Madison",
        "Routes": "54",
        "start_lng": "-87.745173",
        "start_lat": "41.880347",
        "Month_Beginning": "2001-11-01 00:00:00",
        "MonthTotal": "70239.4",
        "heat": "0.06633373596038829"
    },
    {
        "Stop_ID": "10502",
        "CTA Stop Name": "55th Street & Pulaski",
        "Routes": "55",
        "start_lng": "-87.72267",
        "start_lat": "41.793143",
        "Month_Beginning": "2001-11-01 00:00:00",
        "MonthTotal": "31966.363636363636",
        "heat": "0.030188872983942107"
    },
    {
        "Stop_ID": "10519",
        "CTA Stop Name": "55th Street & Western Avenue",
        "Routes": "55",
        "start_lng": "-87.684239",
        "start_lat": "41.793796",
        "Month_Beginning": "2001-11-01 00:00:00",
        "MonthTotal": "31966.363636363636",
        "heat": "0.030188872983942107"
    },
    {
        "Stop_ID": "10528",
        "CTA Stop Name": "Garfield & Ashland",
        "Routes": "55",
        "start_lng": "-87.664294",
        "start_lat": "41.793616",
        "Month_Beginning": "2001-11-01 00:00:00",
        "MonthTotal": "31966.363636363636",
        "heat": "0.030188872983942107"
    },
    {
        "Stop_ID": "10536",
        "CTA Stop Name": "Garfield & Halsted",
        "Routes": "55",
        "start_lng": "-87.644799",
        "start_lat": "41.793895",
        "Month_Beginning": "2001-11-01 00:00:00",
        "MonthTotal": "31966.363636363636",
        "heat": "0.030188872983942107"
    },
    {
        "Stop_ID": "10854",
        "CTA Stop Name": "75th Street & Exchange",
        "Routes": "N5,71,75",
        "start_lng": "-87.560031",
        "start_lat": "41.759213",
        "Month_Beginning": "2001-11-01 00:00:00",
        "MonthTotal": "200024.5",
        "heat": "0.18890213140500473"
    },
    {
        "Stop_ID": "10973",
        "CTA Stop Name": "Diversey & Narragansett",
        "Routes": "76",
        "start_lng": "-87.785821",
        "start_lat": "41.930935",
        "Month_Beginning": "2001-11-01 00:00:00",
        "MonthTotal": "55198.666666666664",
        "heat": "0.05212934307571183"
    },
    {
        "Stop_ID": "11123",
        "CTA Stop Name": "Kimball & Foster",
        "Routes": "82,93",
        "start_lng": "-87.713643",
        "start_lat": "41.975378",
        "Month_Beginning": "2001-11-01 00:00:00",
        "MonthTotal": "100386.83333333334",
        "heat": "0.09480482031783928"
    },
    {
        "Stop_ID": "11267",
        "CTA Stop Name": "Kimball & Diversey/Milwaukee",
        "Routes": "82",
        "start_lng": "-87.712224",
        "start_lat": "41.932303",
        "Month_Beginning": "2001-11-01 00:00:00",
        "MonthTotal": "83265.16666666667",
        "heat": "0.07863520446308471"
    },
    {
        "Stop_ID": "11324",
        "CTA Stop Name": "Montrose & Cicero",
        "Routes": "78",
        "start_lng": "-87.747719",
        "start_lat": "41.960648",
        "Month_Beginning": "2001-11-01 00:00:00",
        "MonthTotal": "57138.75",
        "heat": "0.053961548014456795"
    },
    {
        "Stop_ID": "11667",
        "CTA Stop Name": "Touhy & Lehigh",
        "Routes": "85A",
        "start_lng": "-87.773448",
        "start_lat": "42.011846",
        "Month_Beginning": "2001-11-01 00:00:00",
        "MonthTotal": "19070.0",
        "heat": "0.018009612051990833"
    },
    {
        "Stop_ID": "11877",
        "CTA Stop Name": "California & Devon",
        "Routes": "93",
        "start_lng": "-87.699728",
        "start_lat": "41.997646",
        "Month_Beginning": "2001-11-01 00:00:00",
        "MonthTotal": "17121.666666666668",
        "heat": "0.016169615854754574"
    },
    {
        "Stop_ID": "12515",
        "CTA Stop Name": "Addison Blue Line Station",
        "Routes": "152",
        "start_lng": "-87.717525",
        "start_lat": "41.946417",
        "Month_Beginning": "2001-11-01 00:00:00",
        "MonthTotal": "51084.6",
        "heat": "0.048244039215056676"
    },
    {
        "Stop_ID": "14459",
        "CTA Stop Name": "Roosevelt & Halsted",
        "Routes": "12,18,N62",
        "start_lng": "-87.646325",
        "start_lat": "41.867071",
        "Month_Beginning": "2001-11-01 00:00:00",
        "MonthTotal": "48943.82142857143",
        "heat": "0.046222298703224286"
    },
    {
        "Stop_ID": "14485",
        "CTA Stop Name": "Michigan & Congress",
        "Routes": "1,3,4,6,J14,26,28",
        "start_lng": "-87.624126",
        "start_lat": "41.87554",
        "Month_Beginning": "2001-11-01 00:00:00",
        "MonthTotal": "106229.34506375977",
        "heat": "0.10032245900028215"
    },
    {
        "Stop_ID": "14497",
        "CTA Stop Name": "Halsted & 103rd Street",
        "Routes": "8A,108",
        "start_lng": "-87.642709",
        "start_lat": "41.707072",
        "Month_Beginning": "2001-11-01 00:00:00",
        "MonthTotal": "51567.33333333333",
        "heat": "0.04869993014625215"
    },
    {
        "Stop_ID": "14502",
        "CTA Stop Name": "47th Street & Pulaski",
        "Routes": "47",
        "start_lng": "-87.723249",
        "start_lat": "41.807815",
        "Month_Beginning": "2001-11-01 00:00:00",
        "MonthTotal": "75940.66666666667",
        "heat": "0.07171798351527103"
    },
    {
        "Stop_ID": "14522",
        "CTA Stop Name": "Chicago & Kedzie",
        "Routes": "66",
        "start_lng": "-87.706738",
        "start_lat": "41.89563",
        "Month_Beginning": "2001-11-01 00:00:00",
        "MonthTotal": "32874.94117647059",
        "heat": "0.03104692904143966"
    },
    {
        "Stop_ID": "14529",
        "CTA Stop Name": "Western & Berwyn",
        "Routes": "49,49B",
        "start_lng": "-87.689336",
        "start_lat": "41.977533",
        "Month_Beginning": "2001-11-01 00:00:00",
        "MonthTotal": "73683.97101449275",
        "heat": "0.06958677149560313"
    },
    {
        "Stop_ID": "14555",
        "CTA Stop Name": "Western & Cermak",
        "Routes": "49,X49",
        "start_lng": "-87.685756",
        "start_lat": "41.851825",
        "Month_Beginning": "2001-11-01 00:00:00",
        "MonthTotal": "34705.06625258799",
        "heat": "0.03277528995530933"
    },
    {
        "Stop_ID": "14558",
        "CTA Stop Name": "Irving Park & Kedzie",
        "Routes": "80",
        "start_lng": "-87.707632",
        "start_lat": "41.953825",
        "Month_Beginning": "2001-11-01 00:00:00",
        "MonthTotal": "31696.0",
        "heat": "0.029933542926056707"
    },
    {
        "Stop_ID": "14559",
        "CTA Stop Name": "McCormick Place",
        "Routes": "3,21",
        "start_lng": "-87.618849",
        "start_lat": "41.851536",
        "Month_Beginning": "2001-11-01 00:00:00",
        "MonthTotal": "126737.4705882353",
        "heat": "0.1196902295618624"
    },
    {
        "Stop_ID": "14592",
        "CTA Stop Name": "Western & Lawrence",
        "Routes": "11,49,49B,X49",
        "start_lng": "-87.688769",
        "start_lat": "41.968857",
        "Month_Beginning": "2001-11-01 00:00:00",
        "MonthTotal": "166749.73291925463",
        "heat": "0.15747760879123548"
    },
    {
        "Stop_ID": "14627",
        "CTA Stop Name": "Pulaski & Chicago",
        "Routes": "53,N66",
        "start_lng": "-87.726178",
        "start_lat": "41.895154",
        "Month_Beginning": "2001-11-01 00:00:00",
        "MonthTotal": "142170.0",
        "heat": "0.13426463269174288"
    },
    {
        "Stop_ID": "14771",
        "CTA Stop Name": "Cicero & Belmont",
        "Routes": "54",
        "start_lng": "-87.747024",
        "start_lat": "41.938631",
        "Month_Beginning": "2001-11-01 00:00:00",
        "MonthTotal": "70239.4",
        "heat": "0.06633373596038829"
    },
    {
        "Stop_ID": "14774",
        "CTA Stop Name": "Grand & Milwaukee (Blue Line)",
        "Routes": "65",
        "start_lng": "-87.648147",
        "start_lat": "41.891251",
        "Month_Beginning": "2001-11-01 00:00:00",
        "MonthTotal": "25287.714285714286",
        "heat": "0.023881590139868944"
    },
    {
        "Stop_ID": "14775",
        "CTA Stop Name": "Illinois & State",
        "Routes": "29,65",
        "start_lng": "-87.627745",
        "start_lat": "41.890819",
        "Month_Beginning": "2001-11-01 00:00:00",
        "MonthTotal": "54255.65178571429",
        "heat": "0.05123876456678647"
    },
    {
        "Stop_ID": "14783",
        "CTA Stop Name": "Ashland & Lake (Green Line)",
        "Routes": "9,X9",
        "start_lng": "-87.666772",
        "start_lat": "41.88522",
        "Month_Beginning": "2001-11-01 00:00:00",
        "MonthTotal": "61959.61538461538",
        "heat": "0.058514349028184885"
    },
    {
        "Stop_ID": "14840",
        "CTA Stop Name": "Madison & Kedzie",
        "Routes": "20",
        "start_lng": "-87.706375",
        "start_lat": "41.881024",
        "Month_Beginning": "2001-11-01 00:00:00",
        "MonthTotal": "39875.86666666667",
        "heat": "0.037658567850213924"
    },
    {
        "Stop_ID": "14844",
        "CTA Stop Name": "Central & Madison",
        "Routes": "85",
        "start_lng": "-87.764762",
        "start_lat": "41.88047",
        "Month_Beginning": "2001-11-01 00:00:00",
        "MonthTotal": "84572.0",
        "heat": "0.07986937128793753"
    },
    {
        "Stop_ID": "14912",
        "CTA Stop Name": "Belmont & Lincoln/Ashland",
        "Routes": "77",
        "start_lng": "-87.668256",
        "start_lat": "41.939643",
        "Month_Beginning": "2001-11-01 00:00:00",
        "MonthTotal": "89073.0",
        "heat": "0.08412009304179231"
    },
    {
        "Stop_ID": "14943",
        "CTA Stop Name": "Ewing & 106th Street",
        "Routes": "30",
        "start_lng": "-87.535193",
        "start_lat": "41.70298",
        "Month_Beginning": "2001-11-01 00:00:00",
        "MonthTotal": "24799.75",
        "heat": "0.023420759123563693"
    },
    {
        "Stop_ID": "14950",
        "CTA Stop Name": "Michigan & 111th Street",
        "Routes": "34,119",
        "start_lng": "-87.620971",
        "start_lat": "41.692747",
        "Month_Beginning": "2001-11-01 00:00:00",
        "MonthTotal": "88568.5",
        "heat": "0.08364364578011274"
    },
    {
        "Stop_ID": "14954",
        "CTA Stop Name": "Roosevelt & Pulaski",
        "Routes": "12",
        "start_lng": "-87.72491",
        "start_lat": "41.866082",
        "Month_Beginning": "2001-11-01 00:00:00",
        "MonthTotal": "38611.57142857143",
        "heat": "0.03646457378847954"
    },
    {
        "Stop_ID": "14956",
        "CTA Stop Name": "Madison & Central",
        "Routes": "20",
        "start_lng": "-87.764612",
        "start_lat": "41.880141",
        "Month_Beginning": "2001-11-01 00:00:00",
        "MonthTotal": "39875.86666666667",
        "heat": "0.037658567850213924"
    },
    {
        "Stop_ID": "14959",
        "CTA Stop Name": "Madison & Cicero",
        "Routes": "20",
        "start_lng": "-87.744968",
        "start_lat": "41.880392",
        "Month_Beginning": "2001-11-01 00:00:00",
        "MonthTotal": "39875.86666666667",
        "heat": "0.037658567850213924"
    },
    {
        "Stop_ID": "14969",
        "CTA Stop Name": "26th Street & Kedzie",
        "Routes": "60",
        "start_lng": "-87.705221",
        "start_lat": "41.844565",
        "Month_Beginning": "2001-11-01 00:00:00",
        "MonthTotal": "44177.333333333336",
        "heat": "0.04172085132799247"
    },
    {
        "Stop_ID": "14981",
        "CTA Stop Name": "Roosevelt & California",
        "Routes": "12",
        "start_lng": "-87.696209",
        "start_lat": "41.866606",
        "Month_Beginning": "2001-11-01 00:00:00",
        "MonthTotal": "38611.57142857143",
        "heat": "0.03646457378847954"
    },
    {
        "Stop_ID": "14982",
        "CTA Stop Name": "Roosevelt & California",
        "Routes": "12",
        "start_lng": "-87.695645",
        "start_lat": "41.866405",
        "Month_Beginning": "2001-11-01 00:00:00",
        "MonthTotal": "38611.57142857143",
        "heat": "0.03646457378847954"
    },
    {
        "Stop_ID": "15011",
        "CTA Stop Name": "North Ave & Central",
        "Routes": "72",
        "start_lng": "-87.765465",
        "start_lat": "41.909272",
        "Month_Beginning": "2001-11-01 00:00:00",
        "MonthTotal": "105556.0",
        "heat": "0.09968655530990793"
    },
    {
        "Stop_ID": "15026",
        "CTA Stop Name": "95th Street & Halsted",
        "Routes": "N9,95W,112",
        "start_lng": "-87.642801",
        "start_lat": "41.721355",
        "Month_Beginning": "2001-11-01 00:00:00",
        "MonthTotal": "89990.25",
        "heat": "0.0849863393267786"
    },
    {
        "Stop_ID": "15136",
        "CTA Stop Name": "Madison & Pulaski",
        "Routes": "20",
        "start_lng": "-87.725953",
        "start_lat": "41.880833",
        "Month_Beginning": "2001-11-01 00:00:00",
        "MonthTotal": "39875.86666666667",
        "heat": "0.037658567850213924"
    },
    {
        "Stop_ID": "15210",
        "CTA Stop Name": "63rd Street & Western",
        "Routes": "63",
        "start_lng": "-87.683161",
        "start_lat": "41.779085",
        "Month_Beginning": "2001-11-01 00:00:00",
        "MonthTotal": "72706.25",
        "heat": "0.06866341668878125"
    },
    {
        "Stop_ID": "15426",
        "CTA Stop Name": "Soldier Field & Field Museum",
        "Routes": "130,146",
        "start_lng": "-87.614516",
        "start_lat": "41.865126",
        "Month_Beginning": "2001-11-01 00:00:00",
        "MonthTotal": "7260.424242424242",
        "heat": "0.0068567081247472485"
    },
    {
        "Stop_ID": "17309",
        "CTA Stop Name": "111th Street & Western",
        "Routes": "112",
        "start_lng": "-87.680647",
        "start_lat": "41.691698",
        "Month_Beginning": "2001-11-01 00:00:00",
        "MonthTotal": "23192.25",
        "heat": "0.0219026442114727"
    },
    {
        "Stop_ID": "14488",
        "CTA Stop Name": "Michigan & Superior",
        "Routes": "3,10,26,125,143,146,147,148,151",
        "start_lng": "-87.624422",
        "start_lat": "41.895823",
        "Month_Beginning": "2001-11-01 00:00:00",
        "MonthTotal": "54992.809610533746",
        "heat": "0.051934932707640574"
    },
    {
        "Stop_ID": "68",
        "CTA Stop Name": "Jackson & Franklin",
        "Routes": "1,7,28,126,130,151,156",
        "start_lng": "-87.635401",
        "start_lat": "41.878051",
        "Month_Beginning": "2001-11-01 00:00:00",
        "MonthTotal": "97673.04592789286",
        "heat": "0.09224193314617898"
    },
    {
        "Stop_ID": "75",
        "CTA Stop Name": "Michigan & Van Buren",
        "Routes": "1,7,28,126",
        "start_lng": "-87.62416",
        "start_lat": "41.87669",
        "Month_Beginning": "2001-11-01 00:00:00",
        "MonthTotal": "75344.41031468532",
        "heat": "0.07115488201643938"
    },
    {
        "Stop_ID": "77",
        "CTA Stop Name": "Adams & Wabash",
        "Routes": "1,7,28,126,151",
        "start_lng": "-87.625884",
        "start_lat": "41.879575",
        "Month_Beginning": "2001-11-01 00:00:00",
        "MonthTotal": "87194.10842789286",
        "heat": "0.08234567729447166"
    },
    {
        "Stop_ID": "80",
        "CTA Stop Name": "Adams & Wells",
        "Routes": "1,7,28,126,130,134,135,136,151,156",
        "start_lng": "-87.634024",
        "start_lat": "41.879426",
        "Month_Beginning": "2001-11-01 00:00:00",
        "MonthTotal": "105432.83054327747",
        "heat": "0.09957023469468888"
    },
    {
        "Stop_ID": "206",
        "CTA Stop Name": "Harrison & Halsted",
        "Routes": "7,60,755",
        "start_lng": "-87.64775",
        "start_lat": "41.874441",
        "Month_Beginning": "2001-11-01 00:00:00",
        "MonthTotal": "54953.78787878788",
        "heat": "0.051898080780512106"
    },
    {
        "Stop_ID": "312",
        "CTA Stop Name": "Roosevelt & Canal",
        "Routes": "12,18,N62",
        "start_lng": "-87.638826",
        "start_lat": "41.867139",
        "Month_Beginning": "2001-11-01 00:00:00",
        "MonthTotal": "48943.82142857143",
        "heat": "0.046222298703224286"
    },
    {
        "Stop_ID": "397",
        "CTA Stop Name": "Madison & Laramie",
        "Routes": "20",
        "start_lng": "-87.75526",
        "start_lat": "41.88027",
        "Month_Beginning": "2001-11-01 00:00:00",
        "MonthTotal": "39875.86666666667",
        "heat": "0.037658567850213924"
    },
    {
        "Stop_ID": "442",
        "CTA Stop Name": "Washington & Jefferson",
        "Routes": "J14,19,20,56",
        "start_lng": "-87.642848",
        "start_lat": "41.88311",
        "Month_Beginning": "2001-11-01 00:00:00",
        "MonthTotal": "140522.03333333333",
        "heat": "0.13270830126325417"
    },
    {
        "Stop_ID": "449",
        "CTA Stop Name": "Washington & Wabash",
        "Routes": "N4,J14,19,20,56,60,N66,124,147,151,157",
        "start_lng": "-87.625966",
        "start_lat": "41.883159",
        "Month_Beginning": "2001-11-01 00:00:00",
        "MonthTotal": "207215.23144654089",
        "heat": "0.19569302200396918"
    },
    {
        "Stop_ID": "594",
        "CTA Stop Name": "Fairbanks & Huron",
        "Routes": "3,66,120,121,157",
        "start_lng": "-87.620252",
        "start_lat": "41.894886",
        "Month_Beginning": "2001-11-01 00:00:00",
        "MonthTotal": "104009.41176470587",
        "heat": "0.09822596516193623"
    },
    {
        "Stop_ID": "597",
        "CTA Stop Name": "Chicago & Mies Van Der Rohe",
        "Routes": "3,26,66,157",
        "start_lng": "-87.621709",
        "start_lat": "41.896838",
        "Month_Beginning": "2001-11-01 00:00:00",
        "MonthTotal": "54299.41176470588",
        "heat": "0.05128009127077398"
    },
    {
        "Stop_ID": "622",
        "CTA Stop Name": "Chicago & Ashland",
        "Routes": "66",
        "start_lng": "-87.667079",
        "start_lat": "41.896151",
        "Month_Beginning": "2001-11-01 00:00:00",
        "MonthTotal": "32874.94117647059",
        "heat": "0.03104692904143966"
    },
    {
        "Stop_ID": "759",
        "CTA Stop Name": "Grand & Streeter",
        "Routes": "2,29,65,66,124",
        "start_lng": "-87.612125",
        "start_lat": "41.892011",
        "Month_Beginning": "2001-11-01 00:00:00",
        "MonthTotal": "88085.6405812325",
        "heat": "0.08318763577446761"
    },
    {
        "Stop_ID": "765",
        "CTA Stop Name": "Grand & Dearborn",
        "Routes": "65",
        "start_lng": "-87.629467",
        "start_lat": "41.891714",
        "Month_Beginning": "2001-11-01 00:00:00",
        "MonthTotal": "25287.714285714286",
        "heat": "0.023881590139868944"
    },
    {
        "Stop_ID": "1033",
        "CTA Stop Name": "Sheridan & Granville",
        "Routes": "136,147,151",
        "start_lng": "-87.655598",
        "start_lat": "41.994419",
        "Month_Beginning": "2001-11-01 00:00:00",
        "MonthTotal": "21220.764779874215",
        "heat": "0.020040783488835093"
    },
    {
        "Stop_ID": "1037",
        "CTA Stop Name": "Sheridan & Hollywood",
        "Routes": "136,147,151",
        "start_lng": "-87.655319",
        "start_lat": "41.985339",
        "Month_Beginning": "2001-11-01 00:00:00",
        "MonthTotal": "21220.764779874215",
        "heat": "0.020040783488835093"
    },
    {
        "Stop_ID": "1039",
        "CTA Stop Name": "Sheridan & Catalpa",
        "Routes": "136,147,151",
        "start_lng": "-87.655222",
        "start_lat": "41.981684",
        "Month_Beginning": "2001-11-01 00:00:00",
        "MonthTotal": "21220.764779874215",
        "heat": "0.020040783488835093"
    },
    {
        "Stop_ID": "1040",
        "CTA Stop Name": "Sheridan & Balmoral",
        "Routes": "136,147,151",
        "start_lng": "-87.655155",
        "start_lat": "41.979782",
        "Month_Beginning": "2001-11-01 00:00:00",
        "MonthTotal": "21220.764779874215",
        "heat": "0.020040783488835093"
    },
    {
        "Stop_ID": "1097",
        "CTA Stop Name": "Michigan & Delaware",
        "Routes": "143,146,147,148,151",
        "start_lng": "-87.624246",
        "start_lat": "41.899345",
        "Month_Beginning": "2001-11-01 00:00:00",
        "MonthTotal": "25828.789022298457",
        "heat": "0.024392578398757987"
    },
    {
        "Stop_ID": "1098",
        "CTA Stop Name": "Michigan & Pearson",
        "Routes": "10,125,143,146,147,100,000",
        "start_lng": "-87.624234",
        "start_lat": "41.897731",
        "Month_Beginning": "2001-11-01 00:00:00",
        "MonthTotal": "31376.940909090907",
        "heat": "0.029632225125902873"
    },
    {
        "Stop_ID": "1101",
        "CTA Stop Name": "Michigan & Ohio",
        "Routes": "2,3,10,26,143,146,147,148,151,157",
        "start_lng": "-87.624328",
        "start_lat": "41.892691",
        "Month_Beginning": "2001-11-01 00:00:00",
        "MonthTotal": "48459.95722958137",
        "heat": "0.04576533978819239"
    },
    {
        "Stop_ID": "1113",
        "CTA Stop Name": "State & Van Buren",
        "Routes": "2,10,29,130,146,147,148",
        "start_lng": "-87.627543",
        "start_lat": "41.876848",
        "Month_Beginning": "2001-11-01 00:00:00",
        "MonthTotal": "44153.726028138524",
        "heat": "0.041698556707743306"
    },
    {
        "Stop_ID": "1115",
        "CTA Stop Name": "State & Adams",
        "Routes": "2,10,29,146,147,148,151",
        "start_lng": "-87.62761",
        "start_lat": "41.879401",
        "Month_Beginning": "2001-11-01 00:00:00",
        "MonthTotal": "56003.42414134607",
        "heat": "0.05288935198577559"
    },
    {
        "Stop_ID": "1123",
        "CTA Stop Name": "Michigan & Grand",
        "Routes": "2,3,10,26,143,146,147,148,151,157",
        "start_lng": "-87.624034",
        "start_lat": "41.891769",
        "Month_Beginning": "2001-11-01 00:00:00",
        "MonthTotal": "48459.95722958137",
        "heat": "0.04576533978819239"
    },
    {
        "Stop_ID": "1185",
        "CTA Stop Name": "Sheridan & Berwyn",
        "Routes": "136,147,151",
        "start_lng": "-87.654932",
        "start_lat": "41.978202",
        "Month_Beginning": "2001-11-01 00:00:00",
        "MonthTotal": "21220.764779874215",
        "heat": "0.020040783488835093"
    },
    {
        "Stop_ID": "1204",
        "CTA Stop Name": "Sheridan & Loyola",
        "Routes": "147,151,155",
        "start_lng": "-87.660658",
        "start_lat": "42.001702",
        "Month_Beginning": "2001-11-01 00:00:00",
        "MonthTotal": "51151.36477987422",
        "heat": "0.048307091537252336"
    },
    {
        "Stop_ID": "1421",
        "CTA Stop Name": "Wacker (Upper) & Michigan",
        "Routes": "2,6,10,134,135,136,146,148",
        "start_lng": "-87.625055",
        "start_lat": "41.88836",
        "Month_Beginning": "2001-11-01 00:00:00",
        "MonthTotal": "38634.31556776557",
        "heat": "0.03648605323910056"
    },
    {
        "Stop_ID": "1425",
        "CTA Stop Name": "State & Washington",
        "Routes": "2,6,10,29,36,62,146,148",
        "start_lng": "-87.627972",
        "start_lat": "41.883371",
        "Month_Beginning": "2001-11-01 00:00:00",
        "MonthTotal": "106421.05178571428",
        "heat": "0.10050350586395072"
    },
    {
        "Stop_ID": "1427",
        "CTA Stop Name": "State & Monroe",
        "Routes": "2,6,10,29,36,62,146,148",
        "start_lng": "-87.627834",
        "start_lat": "41.880856",
        "Month_Beginning": "2001-11-01 00:00:00",
        "MonthTotal": "106421.05178571428",
        "heat": "0.10050350586395072"
    },
    {
        "Stop_ID": "1429",
        "CTA Stop Name": "State & Jackson",
        "Routes": "2,6,10,29,36,62,146,148",
        "start_lng": "-87.62777",
        "start_lat": "41.878318",
        "Month_Beginning": "2001-11-01 00:00:00",
        "MonthTotal": "106421.05178571428",
        "heat": "0.10050350586395072"
    },
    {
        "Stop_ID": "1430",
        "CTA Stop Name": "State & Van Buren",
        "Routes": "2,6,10,29,36,62,130,146,148",
        "start_lng": "-87.627764",
        "start_lat": "41.876993",
        "Month_Beginning": "2001-11-01 00:00:00",
        "MonthTotal": "106421.05178571428",
        "heat": "0.10050350586395072"
    },
    {
        "Stop_ID": "1437",
        "CTA Stop Name": "State & Randolph",
        "Routes": "2,10,29,146,148",
        "start_lng": "-87.627791",
        "start_lat": "41.884351",
        "Month_Beginning": "2001-11-01 00:00:00",
        "MonthTotal": "37435.05936147186",
        "heat": "0.035353481711764854"
    },
    {
        "Stop_ID": "1438",
        "CTA Stop Name": "State & Lake",
        "Routes": "2,10,29,146,148",
        "start_lng": "-87.627823",
        "start_lat": "41.885601",
        "Month_Beginning": "2001-11-01 00:00:00",
        "MonthTotal": "37435.05936147186",
        "heat": "0.035353481711764854"
    },
    {
        "Stop_ID": "1518",
        "CTA Stop Name": "S Hyde Park & 55th Street",
        "Routes": "6,28,171",
        "start_lng": "-87.58388",
        "start_lat": "41.795429",
        "Month_Beginning": "2001-11-01 00:00:00",
        "MonthTotal": "60682.509090909094",
        "heat": "0.05730825626998844"
    },
    {
        "Stop_ID": "1523",
        "CTA Stop Name": "E Hyde Park & East End",
        "Routes": "6,28,172",
        "start_lng": "-87.585707",
        "start_lat": "41.802565",
        "Month_Beginning": "2001-11-01 00:00:00",
        "MonthTotal": "60366.509090909094",
        "heat": "0.05700982745989777"
    },
    {
        "Stop_ID": "1525",
        "CTA Stop Name": "E Hyde Park & Lake Park",
        "Routes": "2,15,172",
        "start_lng": "-87.588262",
        "start_lat": "41.802527",
        "Month_Beginning": "2001-11-01 00:00:00",
        "MonthTotal": "15820.547619047618",
        "heat": "0.014940845572579698"
    },
    {
        "Stop_ID": "1785",
        "CTA Stop Name": "Clark & Lunt",
        "Routes": "22",
        "start_lng": "-87.674073",
        "start_lat": "42.00908",
        "Month_Beginning": "2001-11-01 00:00:00",
        "MonthTotal": "49746.09090909091",
        "heat": "0.04697995796412141"
    },
    {
        "Stop_ID": "1880",
        "CTA Stop Name": "Dearborn & Adams",
        "Routes": "22,24,36,62,151",
        "start_lng": "-87.629248",
        "start_lat": "41.879561",
        "Month_Beginning": "2001-11-01 00:00:00",
        "MonthTotal": "123093.37235563179",
        "heat": "0.11624876152575675"
    },
    {
        "Stop_ID": "1881",
        "CTA Stop Name": "Dearborn & Monroe",
        "Routes": "22,24,36,62,151",
        "start_lng": "-87.629285",
        "start_lat": "41.880948",
        "Month_Beginning": "2001-11-01 00:00:00",
        "MonthTotal": "123093.37235563179",
        "heat": "0.11624876152575675"
    },
    {
        "Stop_ID": "1882",
        "CTA Stop Name": "Dearborn & Madison",
        "Routes": "22,24,36,62,151",
        "start_lng": "-87.629294",
        "start_lat": "41.88207",
        "Month_Beginning": "2001-11-01 00:00:00",
        "MonthTotal": "123093.37235563179",
        "heat": "0.11624876152575675"
    },
    {
        "Stop_ID": "1899",
        "CTA Stop Name": "Clark & Division (Red Line)",
        "Routes": "22",
        "start_lng": "-87.631363",
        "start_lat": "41.903782",
        "Month_Beginning": "2001-11-01 00:00:00",
        "MonthTotal": "49746.09090909091",
        "heat": "0.04697995796412141"
    },
    {
        "Stop_ID": "2059",
        "CTA Stop Name": "Division & Ashland (Blue Line)",
        "Routes": "70",
        "start_lng": "-87.66729",
        "start_lat": "41.903449",
        "Month_Beginning": "2001-11-01 00:00:00",
        "MonthTotal": "288684.0",
        "heat": "0.2726317171272638"
    },
    {
        "Stop_ID": "2138",
        "CTA Stop Name": "King Drive & 63rd Street (Green Line)",
        "Routes": "3",
        "start_lng": "-87.615538",
        "start_lat": "41.780437",
        "Month_Beginning": "2001-11-01 00:00:00",
        "MonthTotal": "17476.970588235294",
        "heat": "0.01650516309062253"
    },
    {
        "Stop_ID": "2353",
        "CTA Stop Name": "State & Roosevelt",
        "Routes": "29,62",
        "start_lng": "-87.627333",
        "start_lat": "41.867663",
        "Month_Beginning": "2001-11-01 00:00:00",
        "MonthTotal": "49899.77083333333",
        "heat": "0.04712509251135713"
    },
    {
        "Stop_ID": "2376",
        "CTA Stop Name": "State & Roosevelt",
        "Routes": "29,62",
        "start_lng": "-87.627536",
        "start_lat": "41.867594",
        "Month_Beginning": "2001-11-01 00:00:00",
        "MonthTotal": "49899.77083333333",
        "heat": "0.04712509251135713"
    },
    {
        "Stop_ID": "2628",
        "CTA Stop Name": "79th Street & Ellis",
        "Routes": "79",
        "start_lng": "-87.600226",
        "start_lat": "41.751397",
        "Month_Beginning": "2001-11-01 00:00:00",
        "MonthTotal": "88714.9",
        "heat": "0.08378190520352183"
    },
    {
        "Stop_ID": "2642",
        "CTA Stop Name": "79th Street & Lafayette",
        "Routes": "79",
        "start_lng": "-87.62611",
        "start_lat": "41.751068",
        "Month_Beginning": "2001-11-01 00:00:00",
        "MonthTotal": "88714.9",
        "heat": "0.08378190520352183"
    },
    {
        "Stop_ID": "2816",
        "CTA Stop Name": "95th Street & Michigan",
        "Routes": "N5,34,95E,100,103,106,111,115,119",
        "start_lng": "-87.620736",
        "start_lat": "41.721676",
        "Month_Beginning": "2001-11-01 00:00:00",
        "MonthTotal": "374071.05",
        "heat": "0.3532708175343925"
    },
    {
        "Stop_ID": "2909",
        "CTA Stop Name": "111th Street & Michigan",
        "Routes": "111",
        "start_lng": "-87.621294",
        "start_lat": "41.692674",
        "Month_Beginning": "2001-11-01 00:00:00",
        "MonthTotal": "77634.0",
        "heat": "0.07331715899550374"
    },
    {
        "Stop_ID": "3165",
        "CTA Stop Name": "Kedzie & Lake (Green Line)",
        "Routes": "52",
        "start_lng": "-87.706107",
        "start_lat": "41.884216",
        "Month_Beginning": "2001-11-01 00:00:00",
        "MonthTotal": "78277.75",
        "heat": "0.07392511325656662"
    },
    {
        "Stop_ID": "3246",
        "CTA Stop Name": "63rd Street & Ashland (Green Line)",
        "Routes": "63",
        "start_lng": "-87.664599",
        "start_lat": "41.779529",
        "Month_Beginning": "2001-11-01 00:00:00",
        "MonthTotal": "72706.25",
        "heat": "0.06866341668878125"
    },
    {
        "Stop_ID": "3868",
        "CTA Stop Name": "Laramie & Lake (Green Line)",
        "Routes": "57",
        "start_lng": "-87.755267",
        "start_lat": "41.887097",
        "Month_Beginning": "2001-11-01 00:00:00",
        "MonthTotal": "39855.0",
        "heat": "0.0376388614752016"
    },
    {
        "Stop_ID": "4184",
        "CTA Stop Name": "California & 26th Street",
        "Routes": "94",
        "start_lng": "-87.695137",
        "start_lat": "41.84457",
        "Month_Beginning": "2001-11-01 00:00:00",
        "MonthTotal": "37529.857142857145",
        "heat": "0.03544300825954348"
    },
    {
        "Stop_ID": "4219",
        "CTA Stop Name": "Sacrmnto & Chicago",
        "Routes": "94",
        "start_lng": "-87.70246",
        "start_lat": "41.895341",
        "Month_Beginning": "2001-11-01 00:00:00",
        "MonthTotal": "37529.857142857145",
        "heat": "0.03544300825954348"
    },
    {
        "Stop_ID": "4725",
        "CTA Stop Name": "Congress & Michigan",
        "Routes": "7,126,143,147",
        "start_lng": "-87.624024",
        "start_lat": "41.875841",
        "Month_Beginning": "2001-11-01 00:00:00",
        "MonthTotal": "47397.24621212121",
        "heat": "0.04476172085018327"
    },
    {
        "Stop_ID": "4732",
        "CTA Stop Name": "Adams & State",
        "Routes": "1,7,28,126,130,151",
        "start_lng": "-87.628105",
        "start_lat": "41.879509",
        "Month_Beginning": "2001-11-01 00:00:00",
        "MonthTotal": "87194.10842789286",
        "heat": "0.08234567729447166"
    },
    {
        "Stop_ID": "4973",
        "CTA Stop Name": "LaSalle & Madison",
        "Routes": "134,135,136,156",
        "start_lng": "-87.632265",
        "start_lat": "41.881838",
        "Month_Beginning": "2001-11-01 00:00:00",
        "MonthTotal": "18238.722115384615",
        "heat": "0.017224557400217225"
    },
    {
        "Stop_ID": "5040",
        "CTA Stop Name": "Lake Park & 47th Street Terminal",
        "Routes": "2,6,28",
        "start_lng": "-87.591638",
        "start_lat": "41.809135",
        "Month_Beginning": "2001-11-01 00:00:00",
        "MonthTotal": "46456.05670995671",
        "heat": "0.04387286621980105"
    },
    {
        "Stop_ID": "5201",
        "CTA Stop Name": "Stony Island & 63rd Street",
        "Routes": "6,15,28",
        "start_lng": "-87.586561",
        "start_lat": "41.780402",
        "Month_Beginning": "2001-11-01 00:00:00",
        "MonthTotal": "45501.009090909094",
        "heat": "0.04297092405355956"
    },
    {
        "Stop_ID": "5217",
        "CTA Stop Name": "Jeffery & 75th Street",
        "Routes": "J14,15",
        "start_lng": "-87.576222",
        "start_lat": "41.758627",
        "Month_Beginning": "2001-11-01 00:00:00",
        "MonthTotal": "7241.75",
        "heat": "0.0068390722641586054"
    },
    {
        "Stop_ID": "5229",
        "CTA Stop Name": "Jeffery & 87th Street",
        "Routes": "J14,15",
        "start_lng": "-87.575805",
        "start_lat": "41.736873",
        "Month_Beginning": "2001-11-01 00:00:00",
        "MonthTotal": "7241.75",
        "heat": "0.0068390722641586054"
    },
    {
        "Stop_ID": "5261",
        "CTA Stop Name": "103rd Street & Luella",
        "Routes": "J14,15",
        "start_lng": "-87.568215",
        "start_lat": "41.70797",
        "Month_Beginning": "2001-11-01 00:00:00",
        "MonthTotal": "7241.75",
        "heat": "0.0068390722641586054"
    },
    {
        "Stop_ID": "5264",
        "CTA Stop Name": "103rd Street & Bensley",
        "Routes": "J14",
        "start_lng": "-87.563424",
        "start_lat": "41.708063",
        "Month_Beginning": "2001-11-01 00:00:00",
        "MonthTotal": "7241.75",
        "heat": "0.0068390722641586054"
    },
    {
        "Stop_ID": "5269",
        "CTA Stop Name": "100th Street & Torrence",
        "Routes": "J14,100",
        "start_lng": "-87.560088",
        "start_lat": "41.713643",
        "Month_Beginning": "2001-11-01 00:00:00",
        "MonthTotal": "12952.55",
        "heat": "0.012232323051075713"
    },
    {
        "Stop_ID": "5273",
        "CTA Stop Name": "100th Street & Yates",
        "Routes": "J14,15",
        "start_lng": "-87.56498",
        "start_lat": "41.713577",
        "Month_Beginning": "2001-11-01 00:00:00",
        "MonthTotal": "7241.75",
        "heat": "0.0068390722641586054"
    },
    {
        "Stop_ID": "5277",
        "CTA Stop Name": "100th Street & Paxton",
        "Routes": "J14,15",
        "start_lng": "-87.569495",
        "start_lat": "41.713512",
        "Month_Beginning": "2001-11-01 00:00:00",
        "MonthTotal": "7241.75",
        "heat": "0.0068390722641586054"
    },
    {
        "Stop_ID": "5280",
        "CTA Stop Name": "Van Vlissingen & 99th Street",
        "Routes": "J14,15",
        "start_lng": "-87.574066",
        "start_lat": "41.715381",
        "Month_Beginning": "2001-11-01 00:00:00",
        "MonthTotal": "7241.75",
        "heat": "0.0068390722641586054"
    },
    {
        "Stop_ID": "5284",
        "CTA Stop Name": "Jeffery & 95th Street",
        "Routes": "J14,15",
        "start_lng": "-87.575275",
        "start_lat": "41.722349",
        "Month_Beginning": "2001-11-01 00:00:00",
        "MonthTotal": "7241.75",
        "heat": "0.0068390722641586054"
    },
    {
        "Stop_ID": "5285",
        "CTA Stop Name": "Jeffery & 93rd Street",
        "Routes": "J14,15",
        "start_lng": "-87.575379",
        "start_lat": "41.726287",
        "Month_Beginning": "2001-11-01 00:00:00",
        "MonthTotal": "7241.75",
        "heat": "0.0068390722641586054"
    },
    {
        "Stop_ID": "5287",
        "CTA Stop Name": "Jeffery & 91st Street",
        "Routes": "J14,15",
        "start_lng": "-87.57545",
        "start_lat": "41.729853",
        "Month_Beginning": "2001-11-01 00:00:00",
        "MonthTotal": "7241.75",
        "heat": "0.0068390722641586054"
    },
    {
        "Stop_ID": "5299",
        "CTA Stop Name": "Jeffery & 79th Street",
        "Routes": "J14,15",
        "start_lng": "-87.575902",
        "start_lat": "41.7518",
        "Month_Beginning": "2001-11-01 00:00:00",
        "MonthTotal": "7241.75",
        "heat": "0.0068390722641586054"
    },
    {
        "Stop_ID": "5303",
        "CTA Stop Name": "Jeffery & 75th Street",
        "Routes": "J14,15",
        "start_lng": "-87.576075",
        "start_lat": "41.759073",
        "Month_Beginning": "2001-11-01 00:00:00",
        "MonthTotal": "7241.75",
        "heat": "0.0068390722641586054"
    },
    {
        "Stop_ID": "5327",
        "CTA Stop Name": "Jeffery & 67th Street",
        "Routes": "J14",
        "start_lng": "-87.576383",
        "start_lat": "41.773326",
        "Month_Beginning": "2001-11-01 00:00:00",
        "MonthTotal": "7241.75",
        "heat": "0.0068390722641586054"
    },
    {
        "Stop_ID": "5518",
        "CTA Stop Name": "Jefferson & Lake",
        "Routes": "56",
        "start_lng": "-87.642684",
        "start_lat": "41.885611",
        "Month_Beginning": "2001-11-01 00:00:00",
        "MonthTotal": "92824.25",
        "heat": "0.08766275466790824"
    },
    {
        "Stop_ID": "5638",
        "CTA Stop Name": "Irving Park & Pulaski",
        "Routes": "80",
        "start_lng": "-87.727787",
        "start_lat": "41.953552",
        "Month_Beginning": "2001-11-01 00:00:00",
        "MonthTotal": "31696.0",
        "heat": "0.029933542926056707"
    },
    {
        "Stop_ID": "6046",
        "CTA Stop Name": "Ashland & Roosevelt",
        "Routes": "9,X9",
        "start_lng": "-87.666552",
        "start_lat": "41.867109",
        "Month_Beginning": "2001-11-01 00:00:00",
        "MonthTotal": "61959.61538461538",
        "heat": "0.058514349028184885"
    },
    {
        "Stop_ID": "6252",
        "CTA Stop Name": "Ashland & Milwaukee (Blue Line)",
        "Routes": "9,X9",
        "start_lng": "-87.667365",
        "start_lat": "41.903734",
        "Month_Beginning": "2001-11-01 00:00:00",
        "MonthTotal": "61959.61538461538",
        "heat": "0.058514349028184885"
    },
    {
        "Stop_ID": "6311",
        "CTA Stop Name": "26th Street & Lawndale",
        "Routes": "60",
        "start_lng": "-87.717333",
        "start_lat": "41.844289",
        "Month_Beginning": "2001-11-01 00:00:00",
        "MonthTotal": "44177.333333333336",
        "heat": "0.04172085132799247"
    },
    {
        "Stop_ID": "6381",
        "CTA Stop Name": "Blue Island & Ashland/Cermak",
        "Routes": "60",
        "start_lng": "-87.666565",
        "start_lat": "41.852161",
        "Month_Beginning": "2001-11-01 00:00:00",
        "MonthTotal": "44177.333333333336",
        "heat": "0.04172085132799247"
    },
    {
        "Stop_ID": "7376",
        "CTA Stop Name": "92nd Street & Commercial",
        "Routes": "30,95E",
        "start_lng": "-87.551053",
        "start_lat": "41.728311",
        "Month_Beginning": "2001-11-01 00:00:00",
        "MonthTotal": "66156.5",
        "heat": "0.06247786574292247"
    },
    {
        "Stop_ID": "7903",
        "CTA Stop Name": "Chicago & Orleans",
        "Routes": "66",
        "start_lng": "-87.637411",
        "start_lat": "41.896644",
        "Month_Beginning": "2001-11-01 00:00:00",
        "MonthTotal": "32874.94117647059",
        "heat": "0.03104692904143966"
    },
    {
        "Stop_ID": "8214",
        "CTA Stop Name": "Western & Cortland (Blue Line)",
        "Routes": "49,X49",
        "start_lng": "-87.687475",
        "start_lat": "41.915794",
        "Month_Beginning": "2001-11-01 00:00:00",
        "MonthTotal": "34705.06625258799",
        "heat": "0.03277528995530933"
    },
    {
        "Stop_ID": "8221",
        "CTA Stop Name": "Western & Division",
        "Routes": "49,X49",
        "start_lng": "-87.687113",
        "start_lat": "41.9031",
        "Month_Beginning": "2001-11-01 00:00:00",
        "MonthTotal": "34705.06625258799",
        "heat": "0.03277528995530933"
    },
    {
        "Stop_ID": "8225",
        "CTA Stop Name": "Western & Chicago",
        "Routes": "49,X49",
        "start_lng": "-87.686991",
        "start_lat": "41.895885",
        "Month_Beginning": "2001-11-01 00:00:00",
        "MonthTotal": "34705.06625258799",
        "heat": "0.03277528995530933"
    },
    {
        "Stop_ID": "8379",
        "CTA Stop Name": "Western & Madison",
        "Routes": "49,X49",
        "start_lng": "-87.6863",
        "start_lat": "41.881051",
        "Month_Beginning": "2001-11-01 00:00:00",
        "MonthTotal": "34705.06625258799",
        "heat": "0.03277528995530933"
    },
    {
        "Stop_ID": "8905",
        "CTA Stop Name": "Damen & Polk",
        "Routes": "50, 755",
        "start_lng": "-87.676278",
        "start_lat": "41.87139",
        "Month_Beginning": "2001-11-01 00:00:00",
        "MonthTotal": "210956.0",
        "heat": "0.1992257850047078"
    },
    {
        "Stop_ID": "9454",
        "CTA Stop Name": "87th Street & Commercial",
        "Routes": "87",
        "start_lng": "-87.551726",
        "start_lat": "41.737443",
        "Month_Beginning": "2001-11-01 00:00:00",
        "MonthTotal": "61094.57142857143",
        "heat": "0.05769740586844335"
    },
    {
        "Stop_ID": "10566",
        "CTA Stop Name": "55th Street & Hyde Park Blvd",
        "Routes": "55,171",
        "start_lng": "-87.584154",
        "start_lat": "41.795284",
        "Month_Beginning": "2001-11-01 00:00:00",
        "MonthTotal": "47147.86363636363",
        "heat": "0.04452620520037099"
    },
    {
        "Stop_ID": "11040",
        "CTA Stop Name": "Diversey & Clark/Broadway",
        "Routes": "76",
        "start_lng": "-87.64532",
        "start_lat": "41.932849",
        "Month_Beginning": "2001-11-01 00:00:00",
        "MonthTotal": "55198.666666666664",
        "heat": "0.05212934307571183"
    },
    {
        "Stop_ID": "11174",
        "CTA Stop Name": "Homan & Madison",
        "Routes": "82",
        "start_lng": "-87.711101",
        "start_lat": "41.881099",
        "Month_Beginning": "2001-11-01 00:00:00",
        "MonthTotal": "83265.16666666667",
        "heat": "0.07863520446308471"
    },
    {
        "Stop_ID": "14428",
        "CTA Stop Name": "North Ave & Clybourn/Halsted (Red Line)",
        "Routes": "N9,72",
        "start_lng": "-87.648504",
        "start_lat": "41.910989",
        "Month_Beginning": "2001-11-01 00:00:00",
        "MonthTotal": "105556.0",
        "heat": "0.09968655530990793"
    },
    {
        "Stop_ID": "14467",
        "CTA Stop Name": "Madison & Halsted",
        "Routes": "20",
        "start_lng": "-87.647558",
        "start_lat": "41.881853",
        "Month_Beginning": "2001-11-01 00:00:00",
        "MonthTotal": "39875.86666666667",
        "heat": "0.037658567850213924"
    },
    {
        "Stop_ID": "14508",
        "CTA Stop Name": "Dearborn & Jackson",
        "Routes": "22,24,36,62",
        "start_lng": "-87.629201",
        "start_lat": "41.878035",
        "Month_Beginning": "2001-11-01 00:00:00",
        "MonthTotal": "111243.67424242424",
        "heat": "0.10505796624772447"
    },
    {
        "Stop_ID": "14546",
        "CTA Stop Name": "Western & Madison",
        "Routes": "49,X49",
        "start_lng": "-87.686556",
        "start_lat": "41.881005",
        "Month_Beginning": "2001-11-01 00:00:00",
        "MonthTotal": "34705.06625258799",
        "heat": "0.03277528995530933"
    },
    {
        "Stop_ID": "14554",
        "CTA Stop Name": "Western & Roosevelt",
        "Routes": "49,X49,157",
        "start_lng": "-87.686157",
        "start_lat": "41.866296",
        "Month_Beginning": "2001-11-01 00:00:00",
        "MonthTotal": "38652.56625258799",
        "heat": "0.03650328909402112"
    },
    {
        "Stop_ID": "14766",
        "CTA Stop Name": "Madison & Homan",
        "Routes": "20",
        "start_lng": "-87.711238",
        "start_lat": "41.880994",
        "Month_Beginning": "2001-11-01 00:00:00",
        "MonthTotal": "39875.86666666667",
        "heat": "0.037658567850213924"
    },
    {
        "Stop_ID": "14951",
        "CTA Stop Name": "Michigan & 111th Street",
        "Routes": "34,119",
        "start_lng": "-87.62112",
        "start_lat": "41.692401",
        "Month_Beginning": "2001-11-01 00:00:00",
        "MonthTotal": "88568.5",
        "heat": "0.08364364578011274"
    },
    {
        "Stop_ID": "15025",
        "CTA Stop Name": "87th Street & Cottage Grove",
        "Routes": "87",
        "start_lng": "-87.605208",
        "start_lat": "41.736711",
        "Month_Beginning": "2001-11-01 00:00:00",
        "MonthTotal": "61094.57142857143",
        "heat": "0.05769740586844335"
    },
    {
        "Stop_ID": "15160",
        "CTA Stop Name": "95th Street & Wentworth",
        "Routes": "N9,95W,108,112",
        "start_lng": "-87.629179",
        "start_lat": "41.721755",
        "Month_Beginning": "2001-11-01 00:00:00",
        "MonthTotal": "111197.25",
        "heat": "0.10501412342675603"
    },
    {
        "Stop_ID": "15495",
        "CTA Stop Name": "Jeffery & 87th Street",
        "Routes": "J14,15",
        "start_lng": "-87.575626",
        "start_lat": "41.736961",
        "Month_Beginning": "2001-11-01 00:00:00",
        "MonthTotal": "7241.75",
        "heat": "0.0068390722641586054"
    },
    {
        "Stop_ID": "15537",
        "CTA Stop Name": "King Drive & 63rd Street (Green Line)",
        "Routes": "3",
        "start_lng": "-87.615701",
        "start_lat": "41.780383",
        "Month_Beginning": "2001-11-01 00:00:00",
        "MonthTotal": "17476.970588235294",
        "heat": "0.01650516309062253"
    },
    {
        "Stop_ID": "15867",
        "CTA Stop Name": "State & 79th Street",
        "Routes": "29,75",
        "start_lng": "-87.624487",
        "start_lat": "41.751457",
        "Month_Beginning": "2001-11-01 00:00:00",
        "MonthTotal": "125182.9375",
        "heat": "0.11822213633474646"
    },
    {
        "Stop_ID": "15904",
        "CTA Stop Name": "LaSalle & Wacker/Lake",
        "Routes": "134,135,136,156",
        "start_lng": "-87.6323",
        "start_lat": "41.886302",
        "Month_Beginning": "2001-11-01 00:00:00",
        "MonthTotal": "18238.722115384615",
        "heat": "0.017224557400217225"
    },
    {
        "Stop_ID": "17564",
        "CTA Stop Name": "Jeffery & 71st Street",
        "Routes": "N5,J14,15",
        "start_lng": "-87.576383",
        "start_lat": "41.766336",
        "Month_Beginning": "2001-11-01 00:00:00",
        "MonthTotal": "7241.75",
        "heat": "0.0068390722641586054"
    },
    {
        "Stop_ID": "17706",
        "CTA Stop Name": "100th Street & Paxton",
        "Routes": "J14,15",
        "start_lng": "-87.569633",
        "start_lat": "41.713395",
        "Month_Beginning": "2001-11-01 00:00:00",
        "MonthTotal": "7241.75",
        "heat": "0.0068390722641586054"
    },
    {
        "Stop_ID": "601",
        "CTA Stop Name": "Chicago & State (Red Line)",
        "Routes": "66",
        "start_lng": "-87.628022",
        "start_lat": "41.896741",
        "Month_Beginning": "2001-11-01 00:00:00",
        "MonthTotal": "32874.94117647059",
        "heat": "0.03104692904143966"
    },
    {
        "Stop_ID": "949",
        "CTA Stop Name": "North Ave & Western",
        "Routes": "72",
        "start_lng": "-87.687029",
        "start_lat": "41.91039",
        "Month_Beginning": "2001-11-01 00:00:00",
        "MonthTotal": "105556.0",
        "heat": "0.09968655530990793"
    },
    {
        "Stop_ID": "1062",
        "CTA Stop Name": "Lake Shore & Waveland",
        "Routes": "135,146,151,152",
        "start_lng": "-87.644544",
        "start_lat": "41.950278",
        "Month_Beginning": "2001-11-01 00:00:00",
        "MonthTotal": "75302.1069710164",
        "heat": "0.07111493095152176"
    },
    {
        "Stop_ID": "1073",
        "CTA Stop Name": "Sheridan & Barry",
        "Routes": "134,143,151,156",
        "start_lng": "-87.639535",
        "start_lat": "41.937565",
        "Month_Beginning": "2001-11-01 00:00:00",
        "MonthTotal": "22328.635613207545",
        "heat": "0.021087051129739607"
    },
    {
        "Stop_ID": "1075",
        "CTA Stop Name": "Sheridan & Oakdale",
        "Routes": "134,143,151,156",
        "start_lng": "-87.639465",
        "start_lat": "41.935383",
        "Month_Beginning": "2001-11-01 00:00:00",
        "MonthTotal": "22328.635613207545",
        "heat": "0.021087051129739607"
    },
    {
        "Stop_ID": "1076",
        "CTA Stop Name": "Sheridan & Surf",
        "Routes": "134,143,151,156",
        "start_lng": "-87.639426",
        "start_lat": "41.934186",
        "Month_Beginning": "2001-11-01 00:00:00",
        "MonthTotal": "22328.635613207545",
        "heat": "0.021087051129739607"
    },
    {
        "Stop_ID": "1079",
        "CTA Stop Name": "Stockton & Roslyn",
        "Routes": "134,143,151,156",
        "start_lng": "-87.639002",
        "start_lat": "41.928292",
        "Month_Beginning": "2001-11-01 00:00:00",
        "MonthTotal": "22328.635613207545",
        "heat": "0.021087051129739607"
    },
    {
        "Stop_ID": "1080",
        "CTA Stop Name": "Stockton & Arlington",
        "Routes": "134,143,151,156",
        "start_lng": "-87.637775",
        "start_lat": "41.926488",
        "Month_Beginning": "2001-11-01 00:00:00",
        "MonthTotal": "22328.635613207545",
        "heat": "0.021087051129739607"
    },
    {
        "Stop_ID": "1148",
        "CTA Stop Name": "Sheridan & Diversey",
        "Routes": "77,134,143,151,156",
        "start_lng": "-87.639174",
        "start_lat": "41.933109",
        "Month_Beginning": "2001-11-01 00:00:00",
        "MonthTotal": "111401.63561320755",
        "heat": "0.10520714417153192"
    },
    {
        "Stop_ID": "1415",
        "CTA Stop Name": "LaSalle & Division",
        "Routes": "156",
        "start_lng": "-87.633052",
        "start_lat": "41.903652",
        "Month_Beginning": "2001-11-01 00:00:00",
        "MonthTotal": "10478.9375",
        "heat": "0.009896255851707324"
    },
    {
        "Stop_ID": "1431",
        "CTA Stop Name": "State & Harrison/Congress",
        "Routes": "2,6,10,29,62,130,146,148",
        "start_lng": "-87.627696",
        "start_lat": "41.874997",
        "Month_Beginning": "2001-11-01 00:00:00",
        "MonthTotal": "80774.30178571428",
        "heat": "0.0762828442019478"
    },
    {
        "Stop_ID": "1574",
        "CTA Stop Name": "Michigan & Cullerton",
        "Routes": "1,3,4",
        "start_lng": "-87.62377",
        "start_lat": "41.85571",
        "Month_Beginning": "2001-11-01 00:00:00",
        "MonthTotal": "53486.58597285068",
        "heat": "0.05051246268256399"
    },
    {
        "Stop_ID": "1762",
        "CTA Stop Name": "Devon & Clark",
        "Routes": "36,151,155",
        "start_lng": "-87.670371",
        "start_lat": "41.998148",
        "Month_Beginning": "2001-11-01 00:00:00",
        "MonthTotal": "70079.44811320755",
        "heat": "0.0661826782032768"
    },
    {
        "Stop_ID": "1792",
        "CTA Stop Name": "Clark & Devon",
        "Routes": "22",
        "start_lng": "-87.670773",
        "start_lat": "41.998181",
        "Month_Beginning": "2001-11-01 00:00:00",
        "MonthTotal": "49746.09090909091",
        "heat": "0.04697995796412141"
    },
    {
        "Stop_ID": "1838",
        "CTA Stop Name": "Clark & Fullerton",
        "Routes": "22,36",
        "start_lng": "-87.640659",
        "start_lat": "41.925642",
        "Month_Beginning": "2001-11-01 00:00:00",
        "MonthTotal": "75392.84090909091",
        "heat": "0.07120061962612434"
    },
    {
        "Stop_ID": "1884",
        "CTA Stop Name": "Dearborn & Randolph",
        "Routes": "22,24,36,62",
        "start_lng": "-87.629387",
        "start_lat": "41.884708",
        "Month_Beginning": "2001-11-01 00:00:00",
        "MonthTotal": "111243.67424242424",
        "heat": "0.10505796624772447"
    },
    {
        "Stop_ID": "1885",
        "CTA Stop Name": "Dearborn & Wacker/Lake",
        "Routes": "22,36,62",
        "start_lng": "-87.629396",
        "start_lat": "41.886184",
        "Month_Beginning": "2001-11-01 00:00:00",
        "MonthTotal": "96324.67424242424",
        "heat": "0.09096853771056394"
    },
    {
        "Stop_ID": "1903",
        "CTA Stop Name": "Clark & North Ave",
        "Routes": "22,36",
        "start_lng": "-87.63158",
        "start_lat": "41.911104",
        "Month_Beginning": "2001-11-01 00:00:00",
        "MonthTotal": "75392.84090909091",
        "heat": "0.07120061962612434"
    },
    {
        "Stop_ID": "2113",
        "CTA Stop Name": "King Drive & 87th Street",
        "Routes": "3",
        "start_lng": "-87.614462",
        "start_lat": "41.736682",
        "Month_Beginning": "2001-11-01 00:00:00",
        "MonthTotal": "17476.970588235294",
        "heat": "0.01650516309062253"
    },
    {
        "Stop_ID": "2125",
        "CTA Stop Name": "King Drive & 75th Street",
        "Routes": "3",
        "start_lng": "-87.615035",
        "start_lat": "41.758598",
        "Month_Beginning": "2001-11-01 00:00:00",
        "MonthTotal": "17476.970588235294",
        "heat": "0.01650516309062253"
    },
    {
        "Stop_ID": "2129",
        "CTA Stop Name": "King Drive & 71st Street",
        "Routes": "3",
        "start_lng": "-87.615132",
        "start_lat": "41.765832",
        "Month_Beginning": "2001-11-01 00:00:00",
        "MonthTotal": "17476.970588235294",
        "heat": "0.01650516309062253"
    },
    {
        "Stop_ID": "2464",
        "CTA Stop Name": "Cottage Grove & 93rd Street",
        "Routes": "4,N5,95E",
        "start_lng": "-87.604434",
        "start_lat": "41.725524",
        "Month_Beginning": "2001-11-01 00:00:00",
        "MonthTotal": "65794.13461538462",
        "heat": "0.062135649696881914"
    },
    {
        "Stop_ID": "2507",
        "CTA Stop Name": "Cottage Grove & 51st Street",
        "Routes": "4",
        "start_lng": "-87.606298",
        "start_lat": "41.802477",
        "Month_Beginning": "2001-11-01 00:00:00",
        "MonthTotal": "24437.384615384617",
        "heat": "0.023078543077523134"
    },
    {
        "Stop_ID": "2553",
        "CTA Stop Name": "Cottage Grove & 51st Street",
        "Routes": "4",
        "start_lng": "-87.60653",
        "start_lat": "41.802335",
        "Month_Beginning": "2001-11-01 00:00:00",
        "MonthTotal": "24437.384615384617",
        "heat": "0.023078543077523134"
    },
    {
        "Stop_ID": "2630",
        "CTA Stop Name": "79th Street & Cottage Grove",
        "Routes": "79",
        "start_lng": "-87.605052",
        "start_lat": "41.751357",
        "Month_Beginning": "2001-11-01 00:00:00",
        "MonthTotal": "88714.9",
        "heat": "0.08378190520352183"
    },
    {
        "Stop_ID": "2646",
        "CTA Stop Name": "79th Street & Vincennes",
        "Routes": "8A,24,79",
        "start_lng": "-87.633955",
        "start_lat": "41.750852",
        "Month_Beginning": "2001-11-01 00:00:00",
        "MonthTotal": "133994.23333333334",
        "heat": "0.1265434797869571"
    },
    {
        "Stop_ID": "2728",
        "CTA Stop Name": "79th Street & Pulaski",
        "Routes": "79,169",
        "start_lng": "-87.7215",
        "start_lat": "41.749396",
        "Month_Beginning": "2001-11-01 00:00:00",
        "MonthTotal": "108544.9",
        "heat": "0.1025092574316801"
    },
    {
        "Stop_ID": "3255",
        "CTA Stop Name": "63rd Street & Western",
        "Routes": "63",
        "start_lng": "-87.683375",
        "start_lat": "41.779295",
        "Month_Beginning": "2001-11-01 00:00:00",
        "MonthTotal": "72706.25",
        "heat": "0.06866341668878125"
    },
    {
        "Stop_ID": "3395",
        "CTA Stop Name": "63rd Street & Kedzie",
        "Routes": "63",
        "start_lng": "-87.703271",
        "start_lat": "41.778894",
        "Month_Beginning": "2001-11-01 00:00:00",
        "MonthTotal": "72706.25",
        "heat": "0.06866341668878125"
    },
    {
        "Stop_ID": "4864",
        "CTA Stop Name": "Marine Drive & Bittersweet",
        "Routes": "136,146",
        "start_lng": "-87.645552",
        "start_lat": "41.95564",
        "Month_Beginning": "2001-11-01 00:00:00",
        "MonthTotal": "9912.824242424242",
        "heat": "0.009361621339571606"
    },
    {
        "Stop_ID": "5311",
        "CTA Stop Name": "67th Street & Jeffery",
        "Routes": "N5,6,15,67",
        "start_lng": "-87.576801",
        "start_lat": "41.773524",
        "Month_Beginning": "2001-11-01 00:00:00",
        "MonthTotal": "68067.40909090909",
        "heat": "0.06428251867390805"
    },
    {
        "Stop_ID": "5682",
        "CTA Stop Name": "Irving Park & Ashland",
        "Routes": "80",
        "start_lng": "-87.668883",
        "start_lat": "41.954364",
        "Month_Beginning": "2001-11-01 00:00:00",
        "MonthTotal": "31696.0",
        "heat": "0.029933542926056707"
    },
    {
        "Stop_ID": "7121",
        "CTA Stop Name": "Stony Island & 75th Street",
        "Routes": "28",
        "start_lng": "-87.58561",
        "start_lat": "41.758602",
        "Month_Beginning": "2001-11-01 00:00:00",
        "MonthTotal": "23093.6",
        "heat": "0.021809479647816227"
    },
    {
        "Stop_ID": "7409",
        "CTA Stop Name": "69th Street & King Drive",
        "Routes": "N5,30,67",
        "start_lng": "-87.615229",
        "start_lat": "41.7694",
        "Month_Beginning": "2001-11-01 00:00:00",
        "MonthTotal": "70459.75",
        "heat": "0.06654183339172842"
    },
    {
        "Stop_ID": "8091",
        "CTA Stop Name": "47th Street & Western Avenue",
        "Routes": "47,94",
        "start_lng": "-87.684687",
        "start_lat": "41.808493",
        "Month_Beginning": "2001-11-01 00:00:00",
        "MonthTotal": "113470.52380952382",
        "heat": "0.10716099177481452"
    },
    {
        "Stop_ID": "8195",
        "CTA Stop Name": "Western & Addison",
        "Routes": "49,X49",
        "start_lng": "-87.688394",
        "start_lat": "41.946379",
        "Month_Beginning": "2001-11-01 00:00:00",
        "MonthTotal": "34705.06625258799",
        "heat": "0.03277528995530933"
    },
    {
        "Stop_ID": "8199",
        "CTA Stop Name": "Western & Belmont",
        "Routes": "49,X49",
        "start_lng": "-87.688217",
        "start_lat": "41.939562",
        "Month_Beginning": "2001-11-01 00:00:00",
        "MonthTotal": "34705.06625258799",
        "heat": "0.03277528995530933"
    },
    {
        "Stop_ID": "8391",
        "CTA Stop Name": "Western & Division",
        "Routes": "49,X49",
        "start_lng": "-87.686968",
        "start_lat": "41.902935",
        "Month_Beginning": "2001-11-01 00:00:00",
        "MonthTotal": "34705.06625258799",
        "heat": "0.03277528995530933"
    },
    {
        "Stop_ID": "9236",
        "CTA Stop Name": "Belmont & Harlem",
        "Routes": "77",
        "start_lng": "-87.806953",
        "start_lat": "41.937925",
        "Month_Beginning": "2001-11-01 00:00:00",
        "MonthTotal": "89073.0",
        "heat": "0.08412009304179231"
    },
    {
        "Stop_ID": "10575",
        "CTA Stop Name": "55th Street & Ellis",
        "Routes": "55",
        "start_lng": "-87.601022",
        "start_lat": "41.795112",
        "Month_Beginning": "2001-11-01 00:00:00",
        "MonthTotal": "31966.363636363636",
        "heat": "0.030188872983942107"
    },
    {
        "Stop_ID": "10792",
        "CTA Stop Name": "71st Street & Cottage Grove/S. Chicago",
        "Routes": "71",
        "start_lng": "-87.60473",
        "start_lat": "41.765748",
        "Month_Beginning": "2001-11-01 00:00:00",
        "MonthTotal": "103809.5",
        "heat": "0.09803716949717578"
    },
    {
        "Stop_ID": "11037",
        "CTA Stop Name": "Diversey & Sheridan/Lakeview",
        "Routes": "76",
        "start_lng": "-87.63963",
        "start_lat": "41.932961",
        "Month_Beginning": "2001-11-01 00:00:00",
        "MonthTotal": "55198.666666666664",
        "heat": "0.05212934307571183"
    },
    {
        "Stop_ID": "11071",
        "CTA Stop Name": "Diversey & Milwaukee/Kimball",
        "Routes": "76",
        "start_lng": "-87.711983",
        "start_lat": "41.932041",
        "Month_Beginning": "2001-11-01 00:00:00",
        "MonthTotal": "55198.666666666664",
        "heat": "0.05212934307571183"
    },
    {
        "Stop_ID": "11119",
        "CTA Stop Name": "Kimball & Bryn Mawr",
        "Routes": "82",
        "start_lng": "-87.713809",
        "start_lat": "41.983084",
        "Month_Beginning": "2001-11-01 00:00:00",
        "MonthTotal": "83265.16666666667",
        "heat": "0.07863520446308471"
    },
    {
        "Stop_ID": "11143",
        "CTA Stop Name": "Kimball & Diversey/Milwaukee",
        "Routes": "82",
        "start_lng": "-87.712397",
        "start_lat": "41.932291",
        "Month_Beginning": "2001-11-01 00:00:00",
        "MonthTotal": "83265.16666666667",
        "heat": "0.07863520446308471"
    },
    {
        "Stop_ID": "11307",
        "CTA Stop Name": "Montrose & Neenah",
        "Routes": "78",
        "start_lng": "-87.790587",
        "start_lat": "41.960029",
        "Month_Beginning": "2001-11-01 00:00:00",
        "MonthTotal": "57138.75",
        "heat": "0.053961548014456795"
    },
    {
        "Stop_ID": "11554",
        "CTA Stop Name": "Central & North Ave",
        "Routes": "85",
        "start_lng": "-87.765799",
        "start_lat": "41.909516",
        "Month_Beginning": "2001-11-01 00:00:00",
        "MonthTotal": "84572.0",
        "heat": "0.07986937128793753"
    },
    {
        "Stop_ID": "14495",
        "CTA Stop Name": "Halsted & 69th Street",
        "Routes": "8",
        "start_lng": "-87.644422",
        "start_lat": "41.769028",
        "Month_Beginning": "2001-11-01 00:00:00",
        "MonthTotal": "257962.0",
        "heat": "0.24361801490066382"
    },
    {
        "Stop_ID": "14573",
        "CTA Stop Name": "Cottage Grove & 71st Street/South Chicago",
        "Routes": "4",
        "start_lng": "-87.60547",
        "start_lat": "41.766173",
        "Month_Beginning": "2001-11-01 00:00:00",
        "MonthTotal": "24437.384615384617",
        "heat": "0.023078543077523134"
    },
    {
        "Stop_ID": "14574",
        "CTA Stop Name": "Cottage Grove & 47th Street",
        "Routes": "4",
        "start_lng": "-87.606462",
        "start_lat": "41.809748",
        "Month_Beginning": "2001-11-01 00:00:00",
        "MonthTotal": "24437.384615384617",
        "heat": "0.023078543077523134"
    },
    {
        "Stop_ID": "14576",
        "CTA Stop Name": "Western & 63rd Street",
        "Routes": "49,X49",
        "start_lng": "-87.683783",
        "start_lat": "41.779029",
        "Month_Beginning": "2001-11-01 00:00:00",
        "MonthTotal": "34705.06625258799",
        "heat": "0.03277528995530933"
    },
    {
        "Stop_ID": "14760",
        "CTA Stop Name": "Michigan & 16th Street",
        "Routes": "1,3,4,12",
        "start_lng": "-87.62388",
        "start_lat": "41.860502",
        "Month_Beginning": "2001-11-01 00:00:00",
        "MonthTotal": "92098.1574014221",
        "heat": "0.08697703647104353"
    },
    {
        "Stop_ID": "14778",
        "CTA Stop Name": "87th Street & Racine",
        "Routes": "24,87",
        "start_lng": "-87.653046",
        "start_lat": "41.735844",
        "Month_Beginning": "2001-11-01 00:00:00",
        "MonthTotal": "76013.57142857142",
        "heat": "0.07178683440560386"
    },
    {
        "Stop_ID": "14816",
        "CTA Stop Name": "Kedzie & 63rd Street",
        "Routes": "52,52A",
        "start_lng": "-87.70305",
        "start_lat": "41.77914",
        "Month_Beginning": "2001-11-01 00:00:00",
        "MonthTotal": "248612.75",
        "heat": "0.23478863024009353"
    },
    {
        "Stop_ID": "14855",
        "CTA Stop Name": "63rd Street & California",
        "Routes": "63",
        "start_lng": "-87.693167",
        "start_lat": "41.779044",
        "Month_Beginning": "2001-11-01 00:00:00",
        "MonthTotal": "72706.25",
        "heat": "0.06866341668878125"
    },
    {
        "Stop_ID": "14964",
        "CTA Stop Name": "Western & Irving Park",
        "Routes": "49,X49",
        "start_lng": "-87.688588",
        "start_lat": "41.953731",
        "Month_Beginning": "2001-11-01 00:00:00",
        "MonthTotal": "34705.06625258799",
        "heat": "0.03277528995530933"
    },
    {
        "Stop_ID": "15012",
        "CTA Stop Name": "Laramie & North Ave",
        "Routes": "57",
        "start_lng": "-87.755988",
        "start_lat": "41.909107",
        "Month_Beginning": "2001-11-01 00:00:00",
        "MonthTotal": "39855.0",
        "heat": "0.0376388614752016"
    },
    {
        "Stop_ID": "15391",
        "CTA Stop Name": "67th Street & Oglesby",
        "Routes": "6,26,67",
        "start_lng": "-87.568204",
        "start_lat": "41.773596",
        "Month_Beginning": "2001-11-01 00:00:00",
        "MonthTotal": "68067.40909090909",
        "heat": "0.06428251867390805"
    },
    {
        "Stop_ID": "15897",
        "CTA Stop Name": "Monroe & Wabash",
        "Routes": "J14",
        "start_lng": "-87.62592",
        "start_lat": "41.880743",
        "Month_Beginning": "2001-11-01 00:00:00",
        "MonthTotal": "7241.75",
        "heat": "0.0068390722641586054"
    },
    {
        "Stop_ID": "15959",
        "CTA Stop Name": "Irving Park & Harlem",
        "Routes": "80",
        "start_lng": "-87.806868",
        "start_lat": "41.95269",
        "Month_Beginning": "2001-11-01 00:00:00",
        "MonthTotal": "31696.0",
        "heat": "0.029933542926056707"
    },
    {
        "Stop_ID": "17363",
        "CTA Stop Name": "King Drive & 79th Street",
        "Routes": "3",
        "start_lng": "-87.615039",
        "start_lat": "41.750921",
        "Month_Beginning": "2001-11-01 00:00:00",
        "MonthTotal": "17476.970588235294",
        "heat": "0.01650516309062253"
    },
    {
        "Stop_ID": "17404",
        "CTA Stop Name": "Western & North Ave",
        "Routes": "49,X49",
        "start_lng": "-87.687097",
        "start_lat": "41.910477",
        "Month_Beginning": "2001-11-01 00:00:00",
        "MonthTotal": "34705.06625258799",
        "heat": "0.03277528995530933"
    },
    {
        "Stop_ID": "17967",
        "CTA Stop Name": "Cottage Grove & 67th Street",
        "Routes": "4",
        "start_lng": "-87.605894",
        "start_lat": "41.772906",
        "Month_Beginning": "2001-11-01 00:00:00",
        "MonthTotal": "24437.384615384617",
        "heat": "0.023078543077523134"
    },
    {
        "Stop_ID": "1401",
        "CTA Stop Name": "Lincoln & Webster",
        "Routes": "37",
        "start_lng": "-87.644098",
        "start_lat": "41.92201",
        "Month_Beginning": "2001-11-01 00:00:00",
        "MonthTotal": "25367.5",
        "heat": "0.02395693936700983"
    },
    {
        "Stop_ID": "1662",
        "CTA Stop Name": "Western Brown Line Station",
        "Routes": "49B",
        "start_lng": "-87.688561",
        "start_lat": "41.966111",
        "Month_Beginning": "2001-11-01 00:00:00",
        "MonthTotal": "45199.666666666664",
        "heat": "0.042686337784266816"
    },
    {
        "Stop_ID": "3041",
        "CTA Stop Name": "Kedzie-Homan Blue Line Station",
        "Routes": "52",
        "start_lng": "-87.706017",
        "start_lat": "41.874251",
        "Month_Beginning": "2001-11-01 00:00:00",
        "MonthTotal": "78277.75",
        "heat": "0.07392511325656662"
    },
    {
        "Stop_ID": "3245",
        "CTA Stop Name": "Ashland/63rd Green Line Station",
        "Routes": "63",
        "start_lng": "-87.663683",
        "start_lat": "41.778812",
        "Month_Beginning": "2001-11-01 00:00:00",
        "MonthTotal": "72706.25",
        "heat": "0.06866341668878125"
    },
    {
        "Stop_ID": "3437",
        "CTA Stop Name": "63rd Street & King Drive (Green Line)",
        "Routes": "63",
        "start_lng": "-87.615717",
        "start_lat": "41.780176",
        "Month_Beginning": "2001-11-01 00:00:00",
        "MonthTotal": "72706.25",
        "heat": "0.06866341668878125"
    },
    {
        "Stop_ID": "3746",
        "CTA Stop Name": "Lawrence & Kimball (Brown Line)",
        "Routes": "81",
        "start_lng": "-87.713049",
        "start_lat": "41.968331",
        "Month_Beginning": "2001-11-01 00:00:00",
        "MonthTotal": "99376.25",
        "heat": "0.09385043050244646"
    },
    {
        "Stop_ID": "3770",
        "CTA Stop Name": "Lawrence Red Line Station",
        "Routes": "81",
        "start_lng": "-87.658604",
        "start_lat": "41.968986",
        "Month_Beginning": "2001-11-01 00:00:00",
        "MonthTotal": "99376.25",
        "heat": "0.09385043050244646"
    },
    {
        "Stop_ID": "3780",
        "CTA Stop Name": "Lawrence Red Line Station",
        "Routes": "81",
        "start_lng": "-87.658611",
        "start_lat": "41.969096",
        "Month_Beginning": "2001-11-01 00:00:00",
        "MonthTotal": "99376.25",
        "heat": "0.09385043050244646"
    },
    {
        "Stop_ID": "3804",
        "CTA Stop Name": "Lawrence & Kimball (Brown Line)",
        "Routes": "81",
        "start_lng": "-87.713198",
        "start_lat": "41.968483",
        "Month_Beginning": "2001-11-01 00:00:00",
        "MonthTotal": "99376.25",
        "heat": "0.09385043050244646"
    },
    {
        "Stop_ID": "4076",
        "CTA Stop Name": "Armitage & Sheffield (Brown & Purple Lines)",
        "Routes": "73",
        "start_lng": "-87.653155",
        "start_lat": "41.91802",
        "Month_Beginning": "2001-11-01 00:00:00",
        "MonthTotal": "117188.0",
        "heat": "0.11067175758514429"
    },
    {
        "Stop_ID": "4212",
        "CTA Stop Name": "California & Lake (Green Line)",
        "Routes": "94",
        "start_lng": "-87.696308",
        "start_lat": "41.884107",
        "Month_Beginning": "2001-11-01 00:00:00",
        "MonthTotal": "37529.857142857145",
        "heat": "0.03544300825954348"
    },
    {
        "Stop_ID": "5637",
        "CTA Stop Name": "Irving Park Blue Line Station",
        "Routes": "80",
        "start_lng": "-87.730143",
        "start_lat": "41.95353",
        "Month_Beginning": "2001-11-01 00:00:00",
        "MonthTotal": "31696.0",
        "heat": "0.029933542926056707"
    },
    {
        "Stop_ID": "5662",
        "CTA Stop Name": "Irving Park Brown Line Station",
        "Routes": "80",
        "start_lng": "-87.674866",
        "start_lat": "41.954103",
        "Month_Beginning": "2001-11-01 00:00:00",
        "MonthTotal": "31696.0",
        "heat": "0.029933542926056707"
    },
    {
        "Stop_ID": "6597",
        "CTA Stop Name": "Fullerton & Sheffield (Red/Brown/Purple Line)",
        "Routes": "37,74",
        "start_lng": "-87.652623",
        "start_lat": "41.925321",
        "Month_Beginning": "2001-11-01 00:00:00",
        "MonthTotal": "141352.1666666667",
        "heat": "0.1334922750065557"
    },
    {
        "Stop_ID": "6691",
        "CTA Stop Name": "Polk Pink Line Station",
        "Routes": "7,157",
        "start_lng": "-87.669706",
        "start_lat": "41.871522",
        "Month_Beginning": "2001-11-01 00:00:00",
        "MonthTotal": "14723.954545454546",
        "heat": "0.01390522859123143"
    },
    {
        "Stop_ID": "7635",
        "CTA Stop Name": "35th Street & State (Green Line)",
        "Routes": "35",
        "start_lng": "-87.625936",
        "start_lat": "41.831183",
        "Month_Beginning": "2001-11-01 00:00:00",
        "MonthTotal": "55390.333333333336",
        "heat": "0.05231035211136809"
    },
    {
        "Stop_ID": "7638",
        "CTA Stop Name": "Sox-35th Red Line Station",
        "Routes": "35,39",
        "start_lng": "-87.630548",
        "start_lat": "41.83103",
        "Month_Beginning": "2001-11-01 00:00:00",
        "MonthTotal": "102167.33333333334",
        "heat": "0.09648631555950524"
    },
    {
        "Stop_ID": "7858",
        "CTA Stop Name": "Belmont & Kimball (Blue Line)",
        "Routes": "77",
        "start_lng": "-87.712183",
        "start_lat": "41.939209",
        "Month_Beginning": "2001-11-01 00:00:00",
        "MonthTotal": "89073.0",
        "heat": "0.08412009304179231"
    },
    {
        "Stop_ID": "7947",
        "CTA Stop Name": "Belmont & Kimball (Blue Line)",
        "Routes": "77",
        "start_lng": "-87.712196",
        "start_lat": "41.939041",
        "Month_Beginning": "2001-11-01 00:00:00",
        "MonthTotal": "89073.0",
        "heat": "0.08412009304179231"
    },